District_Colline,Latitude,Longitude,"(Latitude,Longitude)"
Rango_Bishuri I,-3.2670114,29.6166035,"-3.2670114,29.6166035"
Ngozi_Rumbaga coop,-2.912346,29.8203705,"-2.912346,29.8203705"
Ngozi_Mihigo coop,-2.9121704,29.8204051,"-2.9121704,29.8204051"
Ngozi_Bwizabweranka coop,-2.9122601,29.820368,"-2.9122601,29.820368"
Ngozi_Kavumu B coop,-2.9121432,29.8204839,"-2.9121432,29.8204839"
Ngozi_Kavumu,-2.912192,29.8204283,"-2.912192,29.8204283"
Ngozi_Cigumije coop,-2.9122121,29.8202778,"-2.9122121,29.8202778"
Ngozi_Hina,-2.9120339,29.8204129,"-2.9120339,29.8204129"
Karusi_Buhiga,-3.101041,30.1593769,"-3.101041,30.1593769"
Kabarore_Tondero,-2.8472301,29.4975293,"-2.8472301,29.4975293"
Makebuko_Nyamagandika,-3.6380395,29.9702344,"-3.6380395,29.9702344"
Makebuko_Mwanzari,-3.6379735,29.9704524,"-3.6379735,29.9704524"
Kabarore_Ntarambo,-2.8993325,29.6988988,"-2.8993325,29.6988988"
Makebuko_Mwanzari,-3.638105,29.9700847,"-3.638105,29.9700847"
Nyarusange_Tye Coops,-3.5280992,29.7503854,"-3.5280992,29.7503854"
Nyarusange_Buhabwa coop,-3.6126093,29.7750598,"-3.6126093,29.7750598"
Muyinga_Mubuga,-2.6967668,30.4752931,"-2.6967668,30.4752931"
Muyinga_Murama,-2.6949736,30.4763265,"-2.6949736,30.4763265"
Makebuko_Bugumbasha,-3.6375459,29.9781021,"-3.6375459,29.9781021"
Nyarusange_Gasenyi Coops,-3.5260163,29.7543665,"-3.5260163,29.7543665"
Bweru_Mubavu,-3.3309184,30.3986727,"-3.3309184,30.3986727"
Kiremba_Rutambwe,-2.9252349,29.9309683,"-2.9252349,29.9309683"
Makebuko_Kinyonza,-3.5978703,29.97629,"-3.5978703,29.97629"
Bweru_Caga,-3.2734627,30.3368012,"-3.2734627,30.3368012"
Gishubi_Nyamugari 2,-3.7160758,29.8234085,"-3.7160758,29.8234085"
Nyarusange_Masare Coops,-3.5260163,29.7543665,"-3.5260163,29.7543665"
Muyinga_Ryabihira,-2.6755315,30.5041856,"-2.6755315,30.5041856"
Bweru_Nkanda,-3.2729942,30.3357875,"-3.2729942,30.3357875"
Kiremba_Ruhata,-2.863036,30.0837651,"-2.863036,30.0837651"
Bukirasazi_Kibere coop,-3.7176492,29.9645784,"-3.7176492,29.9645784"
Makebuko_Buga,-3.5518151,29.9754868,"-3.5518151,29.9754868"
Rango_Gikomero I,-3.1462084,29.8218544,"-3.1462084,29.8218544"
Makebuko_Musave,-3.5517921,29.9754025,"-3.5517921,29.9754025"
Makebuko_Rwezamenyo,-3.5518351,29.9753985,"-3.5518351,29.9753985"
Rango_Gikomero II,-3.1462043,29.8205924,"-3.1462043,29.8205924"
Kiremba_Remera,-2.922833,29.9147536,"-2.922833,29.9147536"
Nyarusange_Jugwe Coops,-3.4839525,29.886763,"-3.4839525,29.886763"
Makebuko_Rwesero,-3.6177738,30.016151,"-3.6177738,30.016151"
Kiremba_Kabari,-2.8184935,30.0969118,"-2.8184935,30.0969118"
Gitega_Gisuru Sangwe Gisuru A Coops,-3.3702902,29.8631353,"-3.3702902,29.8631353"
Kiremba_Butare,-2.8128906,30.096554,"-2.8128906,30.096554"
Gitega_Bwoga Sangwe Bwoga Coops,-3.4016733,29.8845359,"-3.4016733,29.8845359"
Gitega_Bihororo,-3.3643174,29.8557104,"-3.3643174,29.8557104"
Gahombo_Kanyankuru,-2.9324482,29.7045967,"-2.9324482,29.7045967"
Gahombo_Kibayi,-2.9324233,29.70481,"-2.9324233,29.70481"
Nyarusange_Masango coop,-3.5736296,29.7725049,"-3.5736296,29.7725049"
Gahombo_Kibenga,-2.9295845,29.6877838,"-2.9295845,29.6877838"
Gitega_Rweza,-3.4059909,29.887202,"-3.4059909,29.887202"
Kiremba_Gashikanwa,-2.9085032,29.8990393,"-2.9085032,29.8990393"
Mwumba_Kinyovu,-2.8250232,29.9144759,"-2.8250232,29.9144759"
Nyarusange_Bihomvora Coops,-3.4839525,29.886763,"-3.4839525,29.886763"
Nyarusange_Bukoro Coops,-3.4839525,29.886763,"-3.4839525,29.886763"
Nyarusange_Muhororo Coops,-3.4839525,29.886763,"-3.4839525,29.886763"
Nyarusange_Rubamvye coop,-3.6059632,29.7833136,"-3.6059632,29.7833136"
Kabarore_Nyangwe,-2.8932342,29.6928097,"-2.8932342,29.6928097"
Kabarore_Ntarambo,-2.8994127,29.698935,"-2.8994127,29.698935"
Mwumba_Gitare,-2.8413225,29.8957464,"-2.8413225,29.8957464"
Kabarore_Kinyamikizi,-2.8965118,29.6905382,"-2.8965118,29.6905382"
Gishubi_Kampezi,-3.778905,29.7932391,"-3.778905,29.7932391"
Kabarore_Kinzobe,-2.8953826,29.663147,"-2.8953826,29.663147"
Kabarore_Benga,-2.8961483,29.6648483,"-2.8961483,29.6648483"
Nyarusange_Kanka coop,-3.599208,29.753145,"-3.599208,29.753145"
Rango_Rubirizi,-3.1717265,29.686115,"-3.1717265,29.686115"
Rango_Gatare,-3.1952792,29.6417669,"-3.1952792,29.6417669"
Rango_Tara II,-3.2108733,29.72221,"-3.2108733,29.72221"
Rango_Tara I,-3.211289,29.7232231,"-3.211289,29.7232231"
Gitaramuka_Gitaramuka,-2.9812444,30.1738524,"-2.9812444,30.1738524"
Muyinga_Mwurire,-2.7045313,30.44782,"-2.7045313,30.44782"
Gitaramuka_Kibenga,-3.0027813,30.1605923,"-3.0027813,30.1605923"
Nyarusange_Biziya Coops,-3.583103,29.793876,"-3.583103,29.793876"
Nyarusange_Kigara coop,-3.5615869,29.7836601,"-3.5615869,29.7836601"
Nyarusange_Musumba coop,-3.6202181,29.7302412,"-3.6202181,29.7302412"
Karusi_Shanga,-3.0356336,30.2128362,"-3.0356336,30.2128362"
Gihogazi_Gihogazi,-3.1117925,29.9987533,"-3.1117925,29.9987533"
Kabarore_Ngoma,-2.8520097,29.6097049,"-2.8520097,29.6097049"
Gasorwe_Muzingi,-2.7736363,30.1905742,"-2.7736363,30.1905742"
Makebuko_Rutanganika coop,-3.553557,29.9757082,"-3.553557,29.9757082"
Makebuko_,-3.5536209,29.975648,"-3.5536209,29.975648"
Gasorwe_Burambira,-2.7291582,30.1489693,"-2.7291582,30.1489693"
Gitega_Bihororo coop,-3.3570233,29.8568383,"-3.3570233,29.8568383"
Gitega_Gihehe II,-3.3453642,29.854654,"-3.3453642,29.854654"
Gitega_Kiremera Cooperative Sangwe Coops,-3.3737291,29.9048393,"-3.3737291,29.9048393"
Karusi_Buhiga,-3.0229334,30.1739501,"-3.0229334,30.1739501"
Buhinyuza_Nyankurazo,-2.9703863,30.3264755,"-2.9703863,30.3264755"
Buhinyuza_Nyagishiru,-2.9919976,30.3238139,"-2.9919976,30.3238139"
Gitega_Kibogoye,-3.3604005,29.8776765,"-3.3604005,29.8776765"
Ngozi_Mivo,-2.9472394,29.7934594,"-2.9472394,29.7934594"
Muyinga_Bunywana,-2.7289536,30.4003196,"-2.7289536,30.4003196"
Muyinga_Rugari,-2.7288935,30.400548,"-2.7288935,30.400548"
Gasorwe_Nyagatovu,-2.7500712,30.1772943,"-2.7500712,30.1772943"
Mbuye_Nyarunazi I,-3.2917083,29.7654917,"-3.2917083,29.7654917"
Bweru_Ntunda,-3.3573091,30.3785522,"-3.3573091,30.3785522"
Nyabikere_Nyarunazi coop,-3.3228084,30.1219211,"-3.3228084,30.1219211"
Ngozi_Mwungere,-2.9509946,29.7744379,"-2.9509946,29.7744379"
Nyarusange_Kiganda,-3.6732411,29.689256,"-3.6732411,29.689256"
Gitega_Rutegama,-3.3402982,29.8845775,"-3.3402982,29.8845775"
Nyarusange_Buburu,-3.6730385,29.6892917,"-3.6730385,29.6892917"
Nyarusange_Bikingi Coops,-3.5727395,29.8071956,"-3.5727395,29.8071956"
Nyabikere_Kiryama II,-3.3313068,30.018829,"-3.3313068,30.018829"
Nyabikere_Kiryama,-3.3528399,30.009785,"-3.3528399,30.009785"
Ngozi_Mirango,-2.9461544,29.7674121,"-2.9461544,29.7674121"
Ngozi_Mirango,-2.9462174,29.7673298,"-2.9462174,29.7673298"
Gitega_Rweru,-3.3095137,29.8347211,"-3.3095137,29.8347211"
Gitega_Gihuga,-3.3095135,29.8345432,"-3.3095135,29.8345432"
Gitega_Gihuga,-3.3095293,29.8345652,"-3.3095293,29.8345652"
Muyinga_Kinazi,-2.6961226,30.4044056,"-2.6961226,30.4044056"
Gitega_Gihuga,-3.3095339,29.8345063,"-3.3095339,29.8345063"
Nyabikere_Gaharo,-3.2144484,30.0978207,"-3.2144484,30.0978207"
Gitaramuka_Rwizingwe,-2.9355355,30.2249148,"-2.9355355,30.2249148"
Nyabikere_Butamenwa,-3.2565906,30.1152218,"-3.2565906,30.1152218"
Ruyigi_Gahemba,-3.4542219,30.2405256,"-3.4542219,30.2405256"
Mbuye_Rugari,-3.2784214,29.7768184,"-3.2784214,29.7768184"
Mbuye_Munanira I,-3.2784617,29.776507,"-3.2784617,29.776507"
Rango_Nyabiyogi II,-3.1757768,29.7824605,"-3.1757768,29.7824605"
Rango_Rama,-3.1198191,29.7465589,"-3.1198191,29.7465589"
Rango_Nyabibuye I,-3.1239295,29.7571827,"-3.1239295,29.7571827"
Mbuye_Gasenyi,-3.2784597,29.7766747,"-3.2784597,29.7766747"
Makebuko_Kanyonga coop,-3.4931362,30.0451629,"-3.4931362,30.0451629"
Makebuko_Kanyonga,-3.4948385,30.0417119,"-3.4948385,30.0417119"
Makebuko_Rukobe 2 coop,-3.5184933,30.0511883,"-3.5184933,30.0511883"
Gitaramuka_Mugende,-3.018727,30.1198825,"-3.018727,30.1198825"
Gitaramuka_Gasekanya II,-3.0021096,30.0769037,"-3.0021096,30.0769037"
Gitaramuka_Gasekanya,-2.9911151,30.0581745,"-2.9911151,30.0581745"
Makebuko_Rukobe 2,-3.5345243,30.0491933,"-3.5345243,30.0491933"
Bweru_Gasenyi,-3.2834823,30.3960767,"-3.2834823,30.3960767"
Bweru_Rubavu,-3.2558544,30.4324101,"-3.2558544,30.4324101"
Rango_Musagara II,-3.1972671,29.7822592,"-3.1972671,29.7822592"
Giteranyi_Vumasi,-2.4217266,30.4122836,"-2.4217266,30.4122836"
Giteranyi_Rusenyi,-2.4184631,30.4347116,"-2.4184631,30.4347116"
Rango_Muzumure,-3.155878,29.7589032,"-3.155878,29.7589032"
Rango_Rusave,-3.1473518,29.8199677,"-3.1473518,29.8199677"
Rango_Gacokwe,-3.1741007,29.7543978,"-3.1741007,29.7543978"
Rango_Gipfuvya,-3.1544633,29.7593017,"-3.1544633,29.7593017"
Rango_Karama,-3.1557627,29.7588994,"-3.1557627,29.7588994"
Rango_Nyabiyogi I,-3.1696,29.768435,"-3.1696,29.768435"
Mwumba_Kididiri,-2.8356919,29.7427683,"-2.8356919,29.7427683"
Mwumba_Bitambwe,-2.8820686,29.7321176,"-2.8820686,29.7321176"
Bugendana_Carire,-3.2777992,29.8601246,"-3.2777992,29.8601246"
Bugendana_Runyeri I,-3.2770779,29.8576751,"-3.2770779,29.8576751"
Bugendana_Runyeri II,-3.2771746,29.8576491,"-3.2771746,29.8576491"
Giteranyi_Ruzo,-2.4050083,30.4376533,"-2.4050083,30.4376533"
Ngozi_Hina,-2.9218276,29.7599336,"-2.9218276,29.7599336"
Buhinyuza_Kiyange coop,-2.9570591,30.4026058,"-2.9570591,30.4026058"
Buhinyuza_Ntobwe coop,-2.942483,30.3980005,"-2.942483,30.3980005"
Buhinyuza_Kibimba,-3.0262929,30.3620479,"-3.0262929,30.3620479"
Buhinyuza_Nyaruhengeri,-3.0579651,30.3504788,"-3.0579651,30.3504788"
Buhinyuza_Karehe,-3.0268544,30.3861434,"-3.0268544,30.3861434"
Buhinyuza_Nyarunazi coop,-2.9996671,30.3777629,"-2.9996671,30.3777629"
Nyabikere_Ngugo coop,-3.2654245,30.1095643,"-3.2654245,30.1095643"
Ngozi_Kinyana,-2.8987367,29.79453,"-2.8987367,29.79453"
Nyabikere_Rwandagaro,-3.2812524,30.1201242,"-3.2812524,30.1201242"
Matongo_Nyarurama,-3.1885471,29.6453888,"-3.1885471,29.6453888"
Matongo_Nyarurama,-3.1050024,29.7220849,"-3.1050024,29.7220849"
Gahombo_Mudusi,-2.96929,29.6696286,"-2.96929,29.6696286"
Gahombo_,-2.9546583,29.6817898,"-2.9546583,29.6817898"
Nyarusange_Gitaramuka B coop,-3.6388177,29.7019775,"-3.6388177,29.7019775"
Nyarusange_Mashunzi coop,-3.6177967,29.685115,"-3.6177967,29.685115"
Nyabihanga_Ndava,-3.3786063,29.7806331,"-3.3786063,29.7806331"
Nyabihanga_Nyamurenge,-3.3242464,29.786215,"-3.3242464,29.786215"
Nyabihanga_Kamushiha,-3.3613666,29.7961925,"-3.3613666,29.7961925"
Nyabihanga_Matongo I,-3.3244152,29.7859086,"-3.3244152,29.7859086"
Nyabihanga_Matongo II,-3.3247657,29.7864385,"-3.3247657,29.7864385"
Nyabihanga_Nyabisaka,-3.324213,29.7861856,"-3.324213,29.7861856"
Gitaramuka_Gahashi,-2.9510408,30.243256,"-2.9510408,30.243256"
Gitaramuka_Gahahe,-2.942691,30.2636194,"-2.942691,30.2636194"
Bweru_Nzozi,-3.3541555,30.4138025,"-3.3541555,30.4138025"
Makebuko_Muyange,-3.5056031,29.9829722,"-3.5056031,29.9829722"
Makebuko_Muyange,-3.5056031,29.9829722,"-3.5056031,29.9829722"
Gasorwe_Bwasare,-2.8337167,30.188715,"-2.8337167,30.188715"
Gasorwe_Kaguhu,-2.8336835,30.1888635,"-2.8336835,30.1888635"
Gasorwe_Bwasare,-2.833691,30.1885935,"-2.833691,30.1885935"
Gasorwe_Karira,-2.8441233,30.2315684,"-2.8441233,30.2315684"
Makebuko_Muhororo,-3.6169342,29.9507956,"-3.6169342,29.9507956"
Mbuye_Kabuye,-3.2148123,29.801697,"-3.2148123,29.801697"
Mbuye_Murehe II,-3.2306208,29.8019576,"-3.2306208,29.8019576"
Nyabikere_Muhororo,-3.3266139,30.0604457,"-3.3266139,30.0604457"
Nyabikere_Maramvya coop,-3.2989025,30.0800791,"-3.2989025,30.0800791"
Nyabikere_Mbabazi coop,-3.2989483,30.0798875,"-3.2989483,30.0798875"
Bweru_Ruvyagira,-3.2861258,30.4511201,"-3.2861258,30.4511201"
Gitaramuka_Rusagara,-2.9210317,30.211446,"-2.9210317,30.211446"
Bweru_Bweru,-3.3424316,30.4340094,"-3.3424316,30.4340094"
Kabarore_Manga,-2.9018223,29.6310104,"-2.9018223,29.6310104"
Nyarusange_Kibiri Sangwe I Gitega Coops,-3.5280992,29.7503854,"-3.5280992,29.7503854"
Giteranyi_nonwe,-2.5095183,30.4172133,"-2.5095183,30.4172133"
Rango_Bushoka,-3.093862,29.8096127,"-3.093862,29.8096127"
Giteranyi_Masaka,-2.3597565,30.4286587,"-2.3597565,30.4286587"
Gitega_Nyamugari,-3.3145287,29.8291614,"-3.3145287,29.8291614"
Gitega_Kaguhu I,-3.2942165,29.8029465,"-3.2942165,29.8029465"
Gitega_Kaguhu II,-3.2943117,29.8033602,"-3.2943117,29.8033602"
Gitega_KIBIMBA,-3.2942743,29.8032161,"-3.2942743,29.8032161"
Rango_Gitamo,-3.0826917,29.8221362,"-3.0826917,29.8221362"
Gasorwe_Bunyarukiga,-2.733263,30.1892438,"-2.733263,30.1892438"
Gasorwe_Bunyarukiga,-2.733263,30.1892438,"-2.733263,30.1892438"
Gasorwe_Murama,-2.7334366,30.1889602,"-2.7334366,30.1889602"
Gasorwe_Murama,-2.7334366,30.1889602,"-2.7334366,30.1889602"
Gasorwe_Muzingi,-2.6809022,30.25235,"-2.6809022,30.25235"
Gasorwe_Migwa,-2.6810111,30.2523717,"-2.6810111,30.2523717"
Nyabihanga_Mpanuka,-3.3615578,29.7962052,"-3.3615578,29.7962052"
Giteranyi_Mugano II,-2.6041404,30.4402869,"-2.6041404,30.4402869"
Nyabihanga_Muyogoro,-3.3616034,29.7961241,"-3.3616034,29.7961241"
Rango_Nyarurambi,-3.0984507,29.7685288,"-3.0984507,29.7685288"
Nyabihanga_,-3.3615819,29.796175,"-3.3615819,29.796175"
Rango_Rango,-3.0990507,29.768388,"-3.0990507,29.768388"
Mbuye_Munanira II,-3.2621115,29.7947777,"-3.2621115,29.7947777"
Mbuye_Taba,-3.2478379,29.8055011,"-3.2478379,29.8055011"
Nyabihanga_ngoro,-3.3616451,29.7961266,"-3.3616451,29.7961266"
Nyabihanga_Kivuzo,-3.4769165,29.8219647,"-3.4769165,29.8219647"
Gahombo_Migende,-3.0199835,29.6531883,"-3.0199835,29.6531883"
Ruyigi_Dutwe,-3.4550979,30.2803383,"-3.4550979,30.2803383"
Ruyigi_Kirambi,-3.4257549,30.3093818,"-3.4257549,30.3093818"
Gitega_Masasu,-3.3725773,29.9215652,"-3.3725773,29.9215652"
Gasorwe_Gashoho,-2.8075141,30.1324158,"-2.8075141,30.1324158"
Nyabikere_Shombo,-3.2555074,30.048812,"-3.2555074,30.048812"
Giteranyi_kagugo,-2.4725548,30.4330122,"-2.4725548,30.4330122"
Muramvya_Masango II,-3.2704982,29.6529186,"-3.2704982,29.6529186"
Muramvya_Masango I,-3.2680887,29.6687242,"-3.2680887,29.6687242"
Giteranyi_Kijumbura II,-2.3621443,30.4360829,"-2.3621443,30.4360829"
Giteranyi_Kijumbura,-2.3626716,30.4368323,"-2.3626716,30.4368323"
Nyarusange_Gitaramuka N coop,-3.6371839,29.8238391,"-3.6371839,29.8238391"
Nyarusange_Nyarubenga Coops,-3.550366,29.7968759,"-3.550366,29.7968759"
Nyarusange_Gahembe Coops,-3.6185502,29.8279094,"-3.6185502,29.8279094"
Nyarusange_Murambi Coops,-3.6180542,29.8278695,"-3.6180542,29.8278695"
Nyarusange_Gatwaro Coops,-3.6181968,29.8275985,"-3.6181968,29.8275985"
Bweru_Kirambi,-3.3234399,30.4700133,"-3.3234399,30.4700133"
Makebuko_Murenda,-3.5998676,29.9523196,"-3.5998676,29.9523196"
Nyarusange_Muzima Coops,-3.5836673,29.8214654,"-3.5836673,29.8214654"
Bweru_Nyamugari,-3.2188108,30.3729763,"-3.2188108,30.3729763"
Makebuko_Kagoma,-3.5350307,30.0488056,"-3.5350307,30.0488056"
Matongo_Mikuba,-2.9519311,29.5856145,"-2.9519311,29.5856145"
Matongo_Nkonge,-2.9865198,29.5993599,"-2.9865198,29.5993599"
Matongo_Mikuba,-2.9865267,29.5994367,"-2.9865267,29.5994367"
Makebuko_Rukobe 1,-3.5628687,30.035512,"-3.5628687,30.035512"
Gitaramuka_Bikinga,-2.9908284,30.1246962,"-2.9908284,30.1246962"
Gitaramuka_Bugwana,-2.9925415,30.1241046,"-2.9925415,30.1241046"
Gitaramuka_Kibumbwe,-3.0194557,30.0883224,"-3.0194557,30.0883224"
Gitaramuka_Kigozi,-2.959785,30.1285683,"-2.959785,30.1285683"
Makebuko_Ruhanza coop,-3.5885503,30.0221956,"-3.5885503,30.0221956"
Matongo_Nyamiyogoro,-2.9729633,29.6040767,"-2.9729633,29.6040767"
Gasorwe_Kinyami,-2.8043778,30.144582,"-2.8043778,30.144582"
Mwumba_Nyange,-2.8520097,29.7079739,"-2.8520097,29.7079739"
Rango_Nyarusange,-3.1083146,29.7736486,"-3.1083146,29.7736486"
Mwumba_Mihama,-2.8553321,29.6802892,"-2.8553321,29.6802892"
Nyabihanga_Miterama,-3.4706061,29.8099141,"-3.4706061,29.8099141"
Gitaramuka_Cirambo,-2.9339276,30.1910439,"-2.9339276,30.1910439"
Giteranyi_Rukungere,-2.4720057,30.4501776,"-2.4720057,30.4501776"
Giteranyi_Kabira,-2.4725974,30.4507333,"-2.4725974,30.4507333"
Nyabihanga_Murama,-3.4739083,29.7884233,"-3.4739083,29.7884233"
Rango_Bishuri I,-3.1976582,29.7816996,"-3.1976582,29.7816996"
Rango_Bishuri II,-3.2349321,29.9091783,"-3.2349321,29.9091783"
Kabarore_Manga,-2.8066856,29.6474193,"-2.8066856,29.6474193"
Kabarore_Songore,-2.8327606,29.6501928,"-2.8327606,29.6501928"
Kabarore_Ryamukona,-2.82052,29.5826325,"-2.82052,29.5826325"
Bukirasazi_Gasongati,-3.6689052,29.9845926,"-3.6689052,29.9845926"
Nyarusange_Kabimba Coops,-3.5791247,29.8093722,"-3.5791247,29.8093722"
Bukirasazi_Tema,-3.669408,29.9844038,"-3.669408,29.9844038"
Bukirasazi_Kibuye,-3.6693678,29.984702,"-3.6693678,29.984702"
Bugendana_Kibasi,-3.2577939,29.8302518,"-3.2577939,29.8302518"
Mwumba_Buziragahama,-2.8074317,29.7881417,"-2.8074317,29.7881417"
Matongo_Campazi,-2.9779715,29.5872655,"-2.9779715,29.5872655"
Kabarore_Ruhinga,-2.8654165,29.6485987,"-2.8654165,29.6485987"
Mwumba_Rukurazo,-2.8028352,29.7963419,"-2.8028352,29.7963419"
Mwumba_Rwarangabo,-2.8120643,29.7950913,"-2.8120643,29.7950913"
Mwumba_Burenza,-2.8156209,29.8299891,"-2.8156209,29.8299891"
Mwumba_Rwabiriro,-2.8153594,29.8300939,"-2.8153594,29.8300939"
Mwumba_Gatsinda,-2.819581,29.807869,"-2.819581,29.807869"
Bugendana_Bitare,-3.2342066,29.9119046,"-3.2342066,29.9119046"
Kabarore_Migege,-2.894183,29.6436833,"-2.894183,29.6436833"
Kabarore_Kibingo,-2.9029617,29.5940179,"-2.9029617,29.5940179"
Kiremba_Kagarama,-2.8316166,30.0724655,"-2.8316166,30.0724655"
Gahombo_Gisyo,-3.0433704,29.66735,"-3.0433704,29.66735"
Gahombo_Kigume,-3.0626808,29.6743911,"-3.0626808,29.6743911"
Buhinyuza_Gitaramuka,-2.9104999,30.4071397,"-2.9104999,30.4071397"
Buhinyuza_Bugungu coop,-2.9568269,30.405496,"-2.9568269,30.405496"
Buhinyuza_Gasave coop,-2.9443425,30.4214579,"-2.9443425,30.4214579"
Gasorwe_Buvumbi,-2.7007031,30.2489473,"-2.7007031,30.2489473"
Gasorwe_Musama,-2.7091647,30.2209982,"-2.7091647,30.2209982"
Kabarore_Ruhinga,-2.853778,29.6328516,"-2.853778,29.6328516"
Gasorwe_Bonero,-2.7523678,30.2135595,"-2.7523678,30.2135595"
Bugendana_Muyange MUT II,-3.2151791,29.8315956,"-3.2151791,29.8315956"
Bugendana_Nkongwe,-3.2151713,29.8316283,"-3.2151713,29.8316283"
Gihogazi_Ruganira,-3.1563265,29.908211,"-3.1563265,29.908211"
Gahombo_Kivoga,-2.928391,29.7337141,"-2.928391,29.7337141"
Gahombo_,-2.9424657,29.7248042,"-2.9424657,29.7248042"
Rango_Masama II,-3.0674498,29.8176452,"-3.0674498,29.8176452"
Rango_Rubanga,-3.0678848,29.8084176,"-3.0678848,29.8084176"
Gitaramuka_Rubuga,-2.9760206,30.1666923,"-2.9760206,30.1666923"
Kabarore_Gitwa,-2.9983761,29.6329753,"-2.9983761,29.6329753"
Kabarore_Nemba,-2.9688041,29.6270189,"-2.9688041,29.6270189"
Kabarore_Gitwa,-2.9984416,29.6330531,"-2.9984416,29.6330531"
Kabarore_Nemba,-2.9688008,29.6269984,"-2.9688008,29.6269984"
Kabarore_Mihigo,-2.9444033,29.62371,"-2.9444033,29.62371"
Kabarore_Kinga,-2.9128646,29.6147022,"-2.9128646,29.6147022"
Kabarore_Nyabihanga,-2.9454667,29.6521603,"-2.9454667,29.6521603"
Kabarore_Cukiro,-2.9573374,29.6470133,"-2.9573374,29.6470133"
Gitaramuka_Gitaramuka II,-2.9780844,30.1674038,"-2.9780844,30.1674038"
Butaganzwa_Mugege,-3.6218983,30.110288,"-3.6218983,30.110288"
Butaganzwa_Titi,-3.6713123,30.147673,"-3.6713123,30.147673"
Matongo_Ruvumu Kay,-2.9882757,29.556942,"-2.9882757,29.556942"
Rango_Nyabibuye II,-3.1091667,29.7656868,"-3.1091667,29.7656868"
Rango_Musagara I,-3.1976249,29.7819732,"-3.1976249,29.7819732"
Butaganzwa_Gakonko,-3.6445317,30.1248683,"-3.6445317,30.1248683"
Butaganzwa_Bigera,-3.6196555,30.1499025,"-3.6196555,30.1499025"
Bweru_Kinama,-3.4603411,30.4993368,"-3.4603411,30.4993368"
Gihogazi_Mushikanwa,-3.1308414,29.9194503,"-3.1308414,29.9194503"
Nyabikere_Butwe,-3.2524204,30.0732066,"-3.2524204,30.0732066"
Gitaramuka_Ngayane,-2.9999969,30.139315,"-2.9999969,30.139315"
Matongo_Busambo,-2.9810839,29.5655661,"-2.9810839,29.5655661"
Gitaramuka_Ntunda,-2.9856116,30.1521351,"-2.9856116,30.1521351"
Gihogazi_Gihogazi,-3.1618507,29.9809187,"-3.1618507,29.9809187"
Matongo_Buziraguhindwa,-2.9628054,29.5652194,"-2.9628054,29.5652194"
Gitaramuka_Nyaruhinda II,-2.9637271,30.2287397,"-2.9637271,30.2287397"
Gitaramuka_Nyaruhinda,-2.9638418,30.2287802,"-2.9638418,30.2287802"
Ruyigi_Gisoro,-3.3980814,30.3511818,"-3.3980814,30.3511818"
Ngozi_Kinyana,-2.8258001,29.6829416,"-2.8258001,29.6829416"
Mwumba_Mihigo,-2.8519346,29.7465892,"-2.8519346,29.7465892"
Nyabikere_Taba coop,-3.2882083,30.1514322,"-3.2882083,30.1514322"
Nyabikere_Ruhuma,-3.2619301,30.143871,"-3.2619301,30.143871"
Nyabikere_Gitibu,-3.2757972,30.1529553,"-3.2757972,30.1529553"
Kabarore_Songore,-2.8500852,29.6250086,"-2.8500852,29.6250086"
Mwumba_Gasegerwa,-2.8272241,29.8732895,"-2.8272241,29.8732895"
Bweru_Murehe,-3.4611086,30.5155182,"-3.4611086,30.5155182"
Bweru_Gisuru,-3.4500427,30.5106834,"-3.4500427,30.5106834"
Gahombo_Mbirizi,-2.9654831,29.6948418,"-2.9654831,29.6948418"
Makebuko_Buhanga,-3.6520456,29.9959778,"-3.6520456,29.9959778"
Nyabikere_Ruvumu,-3.2500266,30.1924192,"-3.2500266,30.1924192"
Nyabikere_Mazita coop,-3.218129,30.1768602,"-3.218129,30.1768602"
Nyabikere_Gatonde coop,-3.249978,30.1922415,"-3.249978,30.1922415"
Kabarore_Mugoyi,-2.8690154,29.5758913,"-2.8690154,29.5758913"
Bugendana_Muyange MUT II,-3.2151583,29.8315698,"-3.2151583,29.8315698"
Bugendana_Muyange MUT I,-3.2190592,29.8477278,"-3.2190592,29.8477278"
Bweru_Intende,-3.4328348,30.4901828,"-3.4328348,30.4901828"
Bugendana_Jenda II,-3.2846988,29.9223857,"-3.2846988,29.9223857"
Bugendana_Jenda I,-3.2844944,29.9231054,"-3.2844944,29.9231054"
Butaganzwa_Mihama,-3.5034474,30.0873062,"-3.5034474,30.0873062"
Gishubi_Ndava,-3.7470441,29.8054302,"-3.7470441,29.8054302"
Matongo_Ruvumu,-3.0652343,29.6167847,"-3.0652343,29.6167847"
Gasorwe_Gishambusha,-2.8219957,30.1416222,"-2.8219957,30.1416222"
Gasorwe_Cihonda,-2.8225963,30.1416041,"-2.8225963,30.1416041"
Gasorwe_Kagari,-2.7923983,30.1088882,"-2.7923983,30.1088882"
Makebuko_Gasenyi,-3.6526107,29.9341208,"-3.6526107,29.9341208"
Ruyigi_Migege,-3.3870328,30.3193959,"-3.3870328,30.3193959"
Kiremba_Butaha,-2.875375,29.90011,"-2.875375,29.90011"
Kiremba_Gatukuza,-2.8995195,29.8802707,"-2.8995195,29.8802707"
Kiremba_Nini,-2.9119665,29.8899315,"-2.9119665,29.8899315"
Kiremba_Kabamba,-2.8636803,29.8714194,"-2.8636803,29.8714194"
Giteranyi_Mukoni,-2.6015182,30.4413773,"-2.6015182,30.4413773"
Giteranyi_Rubenga,-2.5762884,30.435071,"-2.5762884,30.435071"
Giteranyi_Ndava,-2.5586125,30.4328016,"-2.5586125,30.4328016"
Giteranyi_Rugese,-2.5270198,30.4458112,"-2.5270198,30.4458112"
Bugendana_Nyakeru I,-3.1897768,29.9432783,"-3.1897768,29.9432783"
Kirundo_Burarana,-2.6954043,30.0797297,"-2.6954043,30.0797297"
Makebuko_Janja coop,-3.5328155,29.9328576,"-3.5328155,29.9328576"
Gasorwe_Muruta,-2.8114891,30.1033891,"-2.8114891,30.1033891"
Gasorwe_Gisabazuba,-2.7693088,30.1588336,"-2.7693088,30.1588336"
Gishubi_Nyakarambo,-3.6830517,29.8415751,"-3.6830517,29.8415751"
Makebuko_Karoba,-3.5155353,29.9237238,"-3.5155353,29.9237238"
Giteranyi_Mika,-2.5502589,30.4541522,"-2.5502589,30.4541522"
Giteranyi_Mihigo,-2.4800642,30.4648285,"-2.4800642,30.4648285"
Giteranyi_Gakoni,-2.441178,30.4799581,"-2.441178,30.4799581"
Giteranyi_Tura,-2.428158,30.4854053,"-2.428158,30.4854053"
Giteranyi_Tura II,-2.4282528,30.4857546,"-2.4282528,30.4857546"
Giteranyi_Mihigo II,-2.4719422,30.4684465,"-2.4719422,30.4684465"
Gasorwe_Gitwa,-2.8288838,30.126703,"-2.8288838,30.126703"
Muyinga_Kiringanire,-2.9441753,30.2791035,"-2.9441753,30.2791035"
Muyinga_Cumba,-2.9197942,30.3076762,"-2.9197942,30.3076762"
Muyinga_,-2.8914796,30.3376932,"-2.8914796,30.3376932"
Muramvya_Buhorwa,-3.1962083,29.6704188,"-3.1962083,29.6704188"
Muramvya_Gaharo,-3.1713879,29.6606973,"-3.1713879,29.6606973"
Muramvya_Kiziguro,-3.2049899,29.6528292,"-3.2049899,29.6528292"
Makebuko_Kiyange,-3.5075119,29.9437533,"-3.5075119,29.9437533"
Bugendana_Mwumba II,-3.2064175,29.8649432,"-3.2064175,29.8649432"
Bugendana_Mukoro II,-3.2274846,29.9120783,"-3.2274846,29.9120783"
Bugendana_Mwumba I,-3.20644,29.8649055,"-3.20644,29.8649055"
Matongo_Mvumvu,-3.034204,29.6077358,"-3.034204,29.6077358"
Muramvya_Gahaga,-3.1851748,29.6455183,"-3.1851748,29.6455183"
Kabarore_Karinzi,-2.9137528,29.6445925,"-2.9137528,29.6445925"
Kabarore_Bubezi,-2.9258206,29.6430721,"-2.9258206,29.6430721"
Matongo_Munyinya M,-3.0342146,29.6077419,"-3.0342146,29.6077419"
Makebuko_Gasenyi,-3.652604,29.934171,"-3.652604,29.934171"
Gishubi_Kigomera,-3.6816552,29.8779682,"-3.6816552,29.8779682"
Gishubi_Nyakanazi,-3.683004,29.8781126,"-3.683004,29.8781126"
Makebuko_Rutanganika,-3.5535716,29.9756655,"-3.5535716,29.9756655"
Nyabikere_Rusi,-3.2190772,30.0655936,"-3.2190772,30.0655936"
Nyabikere_Mujenjwa,-3.2207653,30.0512036,"-3.2207653,30.0512036"
Nyabihanga_Kibungere,-3.4096143,29.8218975,"-3.4096143,29.8218975"
Nyabihanga_Muyebe,-3.3875456,29.8380614,"-3.3875456,29.8380614"
Nyabihanga_Musongati,-3.3889601,29.832201,"-3.3889601,29.832201"
Kabarore_Kaserege,-2.9105056,29.5689893,"-2.9105056,29.5689893"
Kabarore_Kaserege,-2.89523,29.5742358,"-2.89523,29.5742358"
Kabarore_,-2.9216649,29.5875079,"-2.9216649,29.5875079"
Muyinga_Mukoni,-2.85867,30.3300374,"-2.85867,30.3300374"
Gishubi_Nyamugari 1,-3.6587717,29.8917451,"-3.6587717,29.8917451"
Gishubi_Rurimbi,-3.6572019,29.9010121,"-3.6572019,29.9010121"
Gishubi_Ndago,-3.6572024,29.9009754,"-3.6572024,29.9009754"
Bugendana_Kibungo I,-3.2391512,29.8928096,"-3.2391512,29.8928096"
Muramvya_Rusha,-3.1922252,29.6184514,"-3.1922252,29.6184514"
Kabarore_Yanza,-2.939428,29.5888206,"-2.939428,29.5888206"
Bugendana_Kibungo I,-3.2390513,29.8928302,"-3.2390513,29.8928302"
Bugendana_Gaterama,-3.247139,29.8471081,"-3.247139,29.8471081"
Matongo_Remera,-2.9656743,29.5478203,"-2.9656743,29.5478203"
Matongo_Mpfunda M,-2.9296473,29.5322759,"-2.9296473,29.5322759"
Gasorwe_Nyungu,-2.7980554,30.2572729,"-2.7980554,30.2572729"
Nyabikere_Gatabo,-3.3206349,30.0344834,"-3.3206349,30.0344834"
Rango_Gatura,-3.0899332,29.7676825,"-3.0899332,29.7676825"
Rango_Kivuzo,-3.0660058,29.8267022,"-3.0660058,29.8267022"
Rango_Gashibuka,-3.0303517,29.8564033,"-3.0303517,29.8564033"
Bugendana_Rushanga,-3.3204957,29.965119,"-3.3204957,29.965119"
Rango_Gaharo,-3.030332,29.8563131,"-3.030332,29.8563131"
Gasorwe_Kizi,-2.893428,30.2439949,"-2.893428,30.2439949"
Gasorwe_Kizi,-2.8934001,30.2439788,"-2.8934001,30.2439788"
Gasorwe_Kivubo,-2.8966126,30.26548,"-2.8966126,30.26548"
Gishubi_Muhagaze,-3.5802933,29.8962426,"-3.5802933,29.8962426"
Gasorwe_Kiremba,-2.8717492,30.2923892,"-2.8717492,30.2923892"
Bugendana_Gitora,-3.3213367,29.9632117,"-3.3213367,29.9632117"
Gasorwe_Kigoganya,-2.8603985,30.2867139,"-2.8603985,30.2867139"
Kirundo_Vumbi,-2.7235068,30.1006824,"-2.7235068,30.1006824"
Gasorwe_Martyazo,-2.8606268,30.2840032,"-2.8606268,30.2840032"
Giteranyi_Kabogo,-2.5665122,30.4604518,"-2.5665122,30.4604518"
Giteranyi_Shoza,-2.5355782,30.478482,"-2.5355782,30.478482"
Giteranyi_Gasenyi,-2.5074389,30.4836407,"-2.5074389,30.4836407"
Giteranyi_Karugunda,-2.5068233,30.4821217,"-2.5068233,30.4821217"
Giteranyi_Karugunda II,-2.5163715,30.4570951,"-2.5163715,30.4570951"
Giteranyi_Bisiga,-2.482637,30.4634211,"-2.482637,30.4634211"
Giteranyi_Kinyami,-2.4667034,30.5057432,"-2.4667034,30.5057432"
Giteranyi_Kinanira,-2.428601,30.5265759,"-2.428601,30.5265759"
Giteranyi_Rumandari,-2.49559,30.51013,"-2.49559,30.51013"
Gishubi_Bucana,-3.5767269,29.9044772,"-3.5767269,29.9044772"
Bugendana_Mirama II,-3.3075405,29.9443448,"-3.3075405,29.9443448"
Bugendana_Mirama I,-3.3068569,29.9447097,"-3.3068569,29.9447097"
Gishubi_Mikore,-3.596775,29.9117174,"-3.596775,29.9117174"
Gishubi_Mugaruro,-3.5969759,29.9117769,"-3.5969759,29.9117769"
Mbuye_Masama,-3.3034784,29.7473113,"-3.3034784,29.7473113"
Gasorwe_Higiro,-2.8120144,30.2492578,"-2.8120144,30.2492578"
Gasorwe_Ngogomo,-2.8388214,30.2590457,"-2.8388214,30.2590457"
Buhinyuza_Muramba coop,-2.9805907,30.3518797,"-2.9805907,30.3518797"
Buhinyuza_Karongwe coop,-2.9249027,30.360425,"-2.9249027,30.360425"
Ruyigi_Rukaragata,-3.465836,30.2602835,"-3.465836,30.2602835"
Ruyigi_Bisinde,-3.4979192,30.1924489,"-3.4979192,30.1924489"
Kabarore_Jene,-2.8529878,29.6114629,"-2.8529878,29.6114629"
Muyinga_Gitongwe,-2.8189367,30.353155,"-2.8189367,30.353155"
Kiremba_Ruvumu,-2.869935,30.0019033,"-2.869935,30.0019033"
Kiremba_Kiremba,-2.8700955,30.0018967,"-2.8700955,30.0018967"
Kiremba_Kiremera,-2.870105,30.001917,"-2.870105,30.001917"
Gihogazi_Gihogazi,-3.1117951,29.9987357,"-3.1117951,29.9987357"
Bugendana_Muririmbo,-3.1911595,29.8452126,"-3.1911595,29.8452126"
Bugendana_Mukoro I,-3.2180813,29.8992638,"-3.2180813,29.8992638"
Muyinga_Ruganirwa,-2.8868726,30.3097961,"-2.8868726,30.3097961"
Muyinga_Nkoyoyo,-2.8808287,30.4048405,"-2.8808287,30.4048405"
Kiremba_Sabunda,-2.9418921,29.9098343,"-2.9418921,29.9098343"
Gihogazi_Rutegama,-3.0977978,29.9483818,"-3.0977978,29.9483818"
Gishubi_Murangara,-3.6120006,29.8653461,"-3.6120006,29.8653461"
Karusi_Karuri,-3.1160761,30.1370698,"-3.1160761,30.1370698"
Gihogazi_Mugogo,-3.0692986,29.9661155,"-3.0692986,29.9661155"
Gihogazi_Taba,-3.0702935,29.9673321,"-3.0702935,29.9673321"
Rango_Kabuye,-3.1700363,29.7387654,"-3.1700363,29.7387654"
Rango_Butanyerera II,-3.1700171,29.7386922,"-3.1700171,29.7386922"
Muyinga_Mageni,-2.904383,30.4188152,"-2.904383,30.4188152"
Karusi_Rudaraza,-3.0622145,30.2116588,"-3.0622145,30.2116588"
Karusi_Gasenyi,-3.0684205,30.2504187,"-3.0684205,30.2504187"
Kiremba_Gatwaro,-2.8103204,29.9639267,"-2.8103204,29.9639267"
Kiremba_Kiremba,-2.8205128,29.9818219,"-2.8205128,29.9818219"
Kiremba_Gisuka,-2.8186466,29.9803766,"-2.8186466,29.9803766"
Kirundo_Gasura,-2.6790271,30.0949736,"-2.6790271,30.0949736"
Muyinga_Bwica,-2.897385,30.2869109,"-2.897385,30.2869109"
Muyinga_Nyamirambo,-2.9088316,30.289913,"-2.9088316,30.289913"
Mwumba_Gihama,-2.8434002,29.7816095,"-2.8434002,29.7816095"
Bweru_Bugama,-3.4017944,30.4580564,"-3.4017944,30.4580564"
Bweru_Bweru,-3.4018168,30.4579764,"-3.4018168,30.4579764"
Kirundo_Kiraro,-2.7634212,30.0746501,"-2.7634212,30.0746501"
Ruyigi_Nombe,-3.3538545,30.2507993,"-3.3538545,30.2507993"
Nyabihanga_Gisitye,-3.39805,29.8591124,"-3.39805,29.8591124"
Nyabihanga_Matyazo,-3.4157715,29.8069405,"-3.4157715,29.8069405"
Gishubi_Nyakigina,-3.6415671,29.8853107,"-3.6415671,29.8853107"
Gishubi_Kigufi,-3.6413016,29.8856683,"-3.6413016,29.8856683"
Kirundo_Kigobe,-2.6924032,30.1233448,"-2.6924032,30.1233448"
Kirundo_Cendajuru,-2.684552,30.1353963,"-2.684552,30.1353963"
Kiremba_Rusengo,-2.9363561,29.9281851,"-2.9363561,29.9281851"
Ruyigi_Rubaragaza,-3.3617148,30.2687708,"-3.3617148,30.2687708"
Muyinga_Rwimbogo,-2.8037047,30.3379143,"-2.8037047,30.3379143"
Muyinga_Cibare,-2.8235599,30.3614679,"-2.8235599,30.3614679"
Gahombo_Karurusi,-2.9274601,29.6699231,"-2.9274601,29.6699231"
Gihogazi_Ruyaga,-3.1038339,29.969249,"-3.1038339,29.969249"
Kiremba_Musumba,-2.8705896,29.9372471,"-2.8705896,29.9372471"
Gitaramuka_Nyarutovu,-2.9398573,30.1589136,"-2.9398573,30.1589136"
Gitaramuka_Gasasa,-2.952578,30.1732849,"-2.952578,30.1732849"
Gitaramuka_Karwa,-2.9728733,30.1448764,"-2.9728733,30.1448764"
Mbuye_Janga,-3.2805,29.7014304,"-3.2805,29.7014304"
Mbuye_Mugerera,-3.2808659,29.7017424,"-3.2808659,29.7017424"
Mwumba_Buhigiranka,-2.7924728,29.8749437,"-2.7924728,29.8749437"
Gishubi_Kibagara,-3.6988085,29.832481,"-3.6988085,29.832481"
Ruyigi_Buruhukiro,-3.4006222,30.2730815,"-3.4006222,30.2730815"
Kirundo_Gikomero,-2.769459,30.0841402,"-2.769459,30.0841402"
Kirundo_Vumbi,-2.7235351,30.100955,"-2.7235351,30.100955"
Kirundo_Burarana,-2.6954679,30.0796587,"-2.6954679,30.0796587"
Bukirasazi_Rukoki,-3.7303772,29.9927377,"-3.7303772,29.9927377"
Muyinga_Kiryama,-2.8537307,30.3167143,"-2.8537307,30.3167143"
Gitega_Rwingiri GIH,-3.3426787,29.9106298,"-3.3426787,29.9106298"
Mwumba_Gatwe,-2.7918529,29.8825175,"-2.7918529,29.8825175"
Mwumba_Masama,-2.7874691,29.9008828,"-2.7874691,29.9008828"
Makebuko_Kibogoye II,-3.5838954,30.0677607,"-3.5838954,30.0677607"
Makebuko_Kibogoye I,-3.6106603,30.0528979,"-3.6106603,30.0528979"
Makebuko_Makebuko,-3.602014,29.9958315,"-3.602014,29.9958315"
Makebuko_Ntita,-3.6018026,29.9956323,"-3.6018026,29.9956323"
Makebuko_Rwanda,-3.5976064,29.9966966,"-3.5976064,29.9966966"
Mwumba_Rurama,-2.8088359,29.895552,"-2.8088359,29.895552"
Kirundo_Kabuye,-2.7049573,30.1201716,"-2.7049573,30.1201716"
Kirundo_Rwimanzovu,-2.7267189,30.1253883,"-2.7267189,30.1253883"
Nyarusange_Kirika coop,-3.595733,29.7094084,"-3.595733,29.7094084"
Nyarusange_Kivoga coop,-3.5958406,29.7092432,"-3.5958406,29.7092432"
Nyarusange_Kanka coop,-3.5991997,29.7531748,"-3.5991997,29.7531748"
Nyarusange_Musumba coop,-3.620179,29.7302374,"-3.620179,29.7302374"
Kirundo_Butsimba,-2.7607028,30.1192318,"-2.7607028,30.1192318"
Gihogazi_Murago,-3.1248274,30.0028215,"-3.1248274,30.0028215"
Muramvya_Burambana,-3.2957971,29.6087473,"-3.2957971,29.6087473"
Gihogazi_Murago,-3.1248742,30.0029681,"-3.1248742,30.0029681"
Mbuye_Bubanda,-3.30508,29.7527367,"-3.30508,29.7527367"
Mbuye_Nyarunazi II,-3.3016415,29.745887,"-3.3016415,29.745887"
Mbuye_cumba,-3.3017257,29.7459142,"-3.3017257,29.7459142"
Muramvya_Muramvya Rural,-3.2678599,29.6196976,"-3.2678599,29.6196976"
Matongo_Karunyinya,-2.9458975,29.584782,"-2.9458975,29.584782"
Matongo_Kivumu,-3.0751587,29.6076018,"-3.0751587,29.6076018"
Bweru_Rusange,-3.388665,30.5088783,"-3.388665,30.5088783"
Bweru_Kibingo,-3.3819312,30.5692558,"-3.3819312,30.5692558"
Kiremba_Kidasha,-2.7978052,30.0728679,"-2.7978052,30.0728679"
Kiremba_Bunogera,-2.7995235,30.0346473,"-2.7995235,30.0346473"
Kiremba_Nyamarobe,-2.7856933,30.0495583,"-2.7856933,30.0495583"
Kiremba_Ragwe,-2.7699385,30.0528955,"-2.7699385,30.0528955"
Karusi_Nkoronko,-3.1966143,30.1638402,"-3.1966143,30.1638402"
Karusi_Rukamba,-3.1687761,30.1026161,"-3.1687761,30.1026161"
Bukirasazi_Ruhinda coop,-3.6647901,30.0012156,"-3.6647901,30.0012156"
Bukirasazi_Ruhinda coop,-3.6647491,30.001252,"-3.6647491,30.001252"
Nyabikere_Nyenzi coop,-3.2719688,30.1918486,"-3.2719688,30.1918486"
Nyarusange_Rubamvye coop,-3.6059358,29.7832153,"-3.6059358,29.7832153"
Ngozi_Mihigo coop,-2.8449366,29.7428731,"-2.8449366,29.7428731"
Ngozi_Kavumu B coop,-2.9283766,29.733622,"-2.9283766,29.733622"
Ngozi_Rugori coop,-2.8769133,29.7553917,"-2.8769133,29.7553917"
Rango_Kiguruka,-3.1273167,29.8263979,"-3.1273167,29.8263979"
Gitega_Nyarunazi,-3.307753,29.8967061,"-3.307753,29.8967061"
Bugendana_Gerangabo,-3.0932407,29.869302,"-3.0932407,29.869302"
Bugendana_Gerangabo,-3.0908849,29.8703831,"-3.0908849,29.8703831"
Kiremba_Cayi,-2.8737145,30.034272,"-2.8737145,30.034272"
Kiremba_Kibezi,-2.8527699,30.0449667,"-2.8527699,30.0449667"
Gahombo_Jimbi,-3.04771,29.7581999,"-3.04771,29.7581999"
Gahombo_Rukanu,-3.0504771,29.7385166,"-3.0504771,29.7385166"
Gahombo_Nyamwera,-3.0379922,29.7858583,"-3.0379922,29.7858583"
Gahombo_Kibimba,-3.0283746,29.8406076,"-3.0283746,29.8406076"
Muyinga_Rutoke,-2.7338157,30.4072782,"-2.7338157,30.4072782"
Gitega_Rutoke coop,-3.4899912,29.8781856,"-3.4899912,29.8781856"
Gitega_Rutoke,-3.4896886,29.8782337,"-3.4896886,29.8782337"
Gitega_Bihanga coop,-3.4916146,29.8935116,"-3.4916146,29.8935116"
Gitega_Butamuheba,-3.4510225,29.8797932,"-3.4510225,29.8797932"
Gitega_Mungwa,-3.4516201,29.8842567,"-3.4516201,29.8842567"
Gitega_Ntobwe,-3.4373649,29.9082603,"-3.4373649,29.9082603"
Gitega_Mugoboka,-3.4808641,29.9281799,"-3.4808641,29.9281799"
Ruyigi_Nganji,-3.3733173,30.3472187,"-3.3733173,30.3472187"
Ruyigi_Nyagutoha,-3.4508251,30.3581795,"-3.4508251,30.3581795"
Ruyigi_Bunogera,-3.3992817,30.3701941,"-3.3992817,30.3701941"
Gahombo_Muhanga,-3.0284955,29.8277768,"-3.0284955,29.8277768"
Kayokwe_Makamba,-3.50203,29.6537067,"-3.50203,29.6537067"
Muramvya_Kavya,-3.3023133,29.5435039,"-3.3023133,29.5435039"
Bukirasazi_Bukirasazi,-3.7013729,29.9654312,"-3.7013729,29.9654312"
Ngozi_Gacekeri,-2.9006833,29.7740616,"-2.9006833,29.7740616"
Gahombo_Ndava,-3.0232871,29.8035536,"-3.0232871,29.8035536"
Gishubi_Ruhande,-3.6178878,29.8612549,"-3.6178878,29.8612549"
Bugendana_Rurengera,-3.0799464,29.8880055,"-3.0799464,29.8880055"
Muramvya_Musongati,-3.3608037,29.6508382,"-3.3608037,29.6508382"
Muramvya_Gatebe,-3.28258,29.548486,"-3.28258,29.548486"
Muramvya_Kirama,-3.2828912,29.5488855,"-3.2828912,29.5488855"
Gishubi_Gishubi,-3.6188825,29.8605247,"-3.6188825,29.8605247"
Nyarusange_Masango coop,-3.5737553,29.7723865,"-3.5737553,29.7723865"
Muyinga_Kavumu,-2.7085529,30.4317075,"-2.7085529,30.4317075"
Muramvya_Kibogoye II,-3.2450964,29.5657711,"-3.2450964,29.5657711"
Gitega_kiriba,-3.3503076,29.9565643,"-3.3503076,29.9565643"
Muyinga_Kavumu,-2.70861,30.4319845,"-2.70861,30.4319845"
Muyinga_Kayenzi,-2.8957432,30.3563624,"-2.8957432,30.3563624"
Mbuye_Murehe II,-3.2284161,29.8211378,"-3.2284161,29.8211378"
Gahombo_Gitwenge,-3.0391479,29.7008043,"-3.0391479,29.7008043"
Gahombo_,-3.0189761,29.6918919,"-3.0189761,29.6918919"
Gahombo_Kivuruga,-2.9703749,29.6421842,"-2.9703749,29.6421842"
Gahombo_Gihororo,-2.9841037,29.649756,"-2.9841037,29.649756"
Gahombo_Kivuvuma,-3.0146943,29.737159,"-3.0146943,29.737159"
Muyinga_Ruyivyi,-2.7472317,30.3858476,"-2.7472317,30.3858476"
Muyinga_Gasasa,-2.7114171,30.4221884,"-2.7114171,30.4221884"
Muramvya_Rweteto I,-3.1926797,29.6375787,"-3.1926797,29.6375787"
Gitega_Gasunu coop,-3.3584483,29.9737619,"-3.3584483,29.9737619"
Gitega_Gasunu,-3.358468,29.973713,"-3.358468,29.973713"
Rango_Karehe,-3.176635,29.7378202,"-3.176635,29.7378202"
Rango_Butanyerera II,-3.1721781,29.7385168,"-3.1721781,29.7385168"
Gitega_Gasunu,-3.4165236,30.0208382,"-3.4165236,30.0208382"
Bukirasazi_Kibere,-3.7206305,29.9460834,"-3.7206305,29.9460834"
Butaganzwa_Gikwiye,-3.5477128,30.1092395,"-3.5477128,30.1092395"
Butaganzwa_Gishubi,-3.5585364,30.1079312,"-3.5585364,30.1079312"
Butaganzwa_Nyarurambi,-3.581034,30.1149036,"-3.581034,30.1149036"
Bukirasazi_Nyamisure,-3.7209687,29.9456605,"-3.7209687,29.9456605"
Gitega_Mirama coop,-3.374372,29.9862914,"-3.374372,29.9862914"
Muramvya_Kibogoye I,-3.2304794,29.5904076,"-3.2304794,29.5904076"
Kiremba_Gitanga,-2.8599202,29.953693,"-2.8599202,29.953693"
Bugendana_Kinyinya,-3.0755211,29.8698333,"-3.0755211,29.8698333"
Butaganzwa_Kiyabu,-3.5404856,30.1391192,"-3.5404856,30.1391192"
Butaganzwa_Kirangara,-3.5245981,30.171988,"-3.5245981,30.171988"
Butaganzwa_Bartye,-3.5248729,30.1717865,"-3.5248729,30.1717865"
Butaganzwa_Gasasa,-3.5801955,30.1632395,"-3.5801955,30.1632395"
Muramvya_Kigereka II,-3.2293896,29.5951885,"-3.2293896,29.5951885"
Butaganzwa_Caragata,-3.5911789,30.1808533,"-3.5911789,30.1808533"
Mbuye_Mubuga,-3.2825941,29.7048648,"-3.2825941,29.7048648"
Mbuye_Nkonyovu,-3.3031981,29.708013,"-3.3031981,29.708013"
Mbuye_Kanegwa,-3.3277531,29.6876581,"-3.3277531,29.6876581"
Mbuye_Gahweza,-3.3654033,29.6659547,"-3.3654033,29.6659547"
Mbuye_Ngara,-3.4012929,29.6914371,"-3.4012929,29.6914371"
Muramvya_Kigereka I,-3.2252733,29.600516,"-3.2252733,29.600516"
Muramvya_Masango II,-3.270572,29.6530381,"-3.270572,29.6530381"
Bugendana_Kivoga,-3.082591,29.8582907,"-3.082591,29.8582907"
Kabarore_Jene,-2.8917693,29.609519,"-2.8917693,29.609519"
Gihogazi_Muzenga,-3.1718415,30.0187086,"-3.1718415,30.0187086"
Bukirasazi_Rugabano coop,-3.7238601,29.9762306,"-3.7238601,29.9762306"
Gihogazi_Gasenyi,-3.1557295,30.0258555,"-3.1557295,30.0258555"
Gasorwe_Gishuha,-2.798805,30.2236557,"-2.798805,30.2236557"
Kiremba_Canamo,-2.8860063,30.092627,"-2.8860063,30.092627"
Bugendana_Nzove,-3.1033042,29.8441136,"-3.1033042,29.8441136"
Butaganzwa_kivumu,-3.5636413,30.1849616,"-3.5636413,30.1849616"
Marangara_Muhuzo,-2.7063397,29.9661867,"-2.7063397,29.9661867"
Marangara_Congori,-2.7062183,29.9661501,"-2.7062183,29.9661501"
Marangara_Muhuzo,-2.7063871,29.9662821,"-2.7063871,29.9662821"
Marangara_Masama,-2.7068729,29.9668948,"-2.7068729,29.9668948"
Gitega_Muyange Gih,-3.308335,29.8464467,"-3.308335,29.8464467"
Karusi_Mayenzi,-3.0311105,30.2294022,"-3.0311105,30.2294022"
Rango_Bisha,-3.1770406,29.7196088,"-3.1770406,29.7196088"
Karusi_Rudaraza,-3.0622205,30.2117246,"-3.0622205,30.2117246"
Ngozi_Kigufi coop,-2.8784944,29.7372567,"-2.8784944,29.7372567"
Gitega_Gihehe I,-3.3074451,29.8374696,"-3.3074451,29.8374696"
Muramvya_Shombo,-3.3569097,29.6234505,"-3.3569097,29.6234505"
Bugendana_Kidasha,-3.1111523,29.842803,"-3.1111523,29.842803"
Gasorwe_Gisebeyi,-2.8090293,30.1713042,"-2.8090293,30.1713042"
Gasorwe_Bwisha,-2.7835216,30.1538061,"-2.7835216,30.1538061"
Gasorwe_Gisa-Rugerero,-2.7821065,30.1710808,"-2.7821065,30.1710808"
Mwumba_kibindi,-2.8191193,29.8057784,"-2.8191193,29.8057784"
Nyabihanga_Gitaba,-3.39529,29.7947117,"-3.39529,29.7947117"
Ngozi_Camugani,-2.9293623,29.8354068,"-2.9293623,29.8354068"
Marangara_Nyamurenge,-2.7322314,29.9560135,"-2.7322314,29.9560135"
Kiremba_Masoro,-2.8829486,30.0546214,"-2.8829486,30.0546214"
Mwumba_Shoza,-2.8321267,29.9155212,"-2.8321267,29.9155212"
Ruyigi_Rugoti,-3.3914693,30.0907809,"-3.3914693,30.0907809"
Ruyigi_Muyange,-3.3694397,30.1266233,"-3.3694397,30.1266233"
Ruyigi_Nkongwe,-3.3956447,30.1370638,"-3.3956447,30.1370638"
Ruyigi_Sorero,-3.3957149,30.1774037,"-3.3957149,30.1774037"
Ruyigi_Kirasira,-3.3964228,30.1543647,"-3.3964228,30.1543647"
Ruyigi_Mubira,-3.3915344,30.090859,"-3.3915344,30.090859"
Ruyigi_Senga,-3.384462,30.2123795,"-3.384462,30.2123795"
Marangara_Kidasha,-2.7181327,29.988818,"-2.7181327,29.988818"
Ngozi_Masamabuhiga coop,-2.900478,29.7737988,"-2.900478,29.7737988"
Ngozi_Makombe N coop,-2.9011383,29.7749976,"-2.9011383,29.7749976"
Kayokwe_Rwankangoma,-3.4857222,29.7593292,"-3.4857222,29.7593292"
Kayokwe_Rusivya,-3.4990253,29.7563332,"-3.4990253,29.7563332"
Rango_Ruhinga,-3.1197372,29.7942745,"-3.1197372,29.7942745"
Gasorwe_Karama,-2.8013299,30.1945693,"-2.8013299,30.1945693"
Gasorwe_Rukinzo,-2.8484111,30.2059705,"-2.8484111,30.2059705"
Kiremba_Rwimbogo,-2.7981197,30.0136424,"-2.7981197,30.0136424"
Kiremba_Bitagazwa,-2.8109613,30.0368492,"-2.8109613,30.0368492"
Kiremba_Gahororo,-2.8079628,30.0169895,"-2.8079628,30.0169895"
Makebuko_Butare,-3.6558863,30.0195399,"-3.6558863,30.0195399"
Makebuko_Gihamagara,-3.6170723,30.0260537,"-3.6170723,30.0260537"
Bukirasazi_Mpingwe coop,-3.6981037,29.9671479,"-3.6981037,29.9671479"
Buhinyuza_Kara coop,-2.986618,30.2928451,"-2.986618,30.2928451"
Buhinyuza_Jarama coop,-2.9865323,30.2923642,"-2.9865323,30.2923642"
Bukirasazi_Bukirasazi coop,-3.7013207,29.9659007,"-3.7013207,29.9659007"
Bugendana_Rwingiri bug,-3.2856065,29.9214074,"-3.2856065,29.9214074"
Kiremba_Masasu,-2.8420557,29.9596673,"-2.8420557,29.9596673"
Muramvya_Gatwaro,-3.3279317,29.6206083,"-3.3279317,29.6206083"
Marangara_Kagoti,-2.7131371,29.9680912,"-2.7131371,29.9680912"
Marangara_Bisiga,-2.6967131,29.9790828,"-2.6967131,29.9790828"
Makebuko_Ruhanza,-3.57566,30.025466,"-3.57566,30.025466"
Muyinga_Musenga,-2.9159309,30.3392158,"-2.9159309,30.3392158"
Muyinga_Kwibuye,-2.8657608,30.3385807,"-2.8657608,30.3385807"
Giteranyi_Giteranyi,-2.5120577,30.4578296,"-2.5120577,30.4578296"
Muyinga_Kibongera,-2.868094,30.3815413,"-2.868094,30.3815413"
Tangara_Nyagasebeyi,-2.9601529,30.0341728,"-2.9601529,30.0341728"
Tangara_Ngendo,-2.9228468,30.0122163,"-2.9228468,30.0122163"
Tangara_Bwitoyi,-2.9110895,30.0038397,"-2.9110895,30.0038397"
Tangara_Bwitoyi,-2.9113045,30.0039337,"-2.9113045,30.0039337"
Tangara_Nyakabanda,-2.9219005,29.9736009,"-2.9219005,29.9736009"
Tangara_Gasekanya,-2.9166375,29.969289,"-2.9166375,29.969289"
Tangara_Taba I,-2.9519341,29.9769255,"-2.9519341,29.9769255"
Tangara_Ntiba,-2.9688527,29.9674716,"-2.9688527,29.9674716"
Tangara_Muhama,-2.979693,29.9535952,"-2.979693,29.9535952"
Tangara_Kimerajana,-3.0182715,29.9559023,"-3.0182715,29.9559023"
Bukirasazi_Rukoki coop,-3.7302683,29.9934758,"-3.7302683,29.9934758"
Nyabihanga_Mbogora,-3.4572113,29.7699944,"-3.4572113,29.7699944"
Nyabihanga_Kivomwa,-3.4560814,29.7693092,"-3.4560814,29.7693092"
Nyabihanga_Butegeye,-3.4563795,29.7693667,"-3.4563795,29.7693667"
Nyabihanga_Muhaganya,-3.4561657,29.7697422,"-3.4561657,29.7697422"
Muramvya_Mubira,-3.3242248,29.6208829,"-3.3242248,29.6208829"
Mbuye_Rutegama,-3.3122117,29.7696011,"-3.3122117,29.7696011"
Mbuye_Munyinya,-3.3316717,29.705055,"-3.3316717,29.705055"
Mbuye_Nyakararo,-3.3322586,29.7050863,"-3.3322586,29.7050863"
Ngozi_Nyaruntana,-2.9492876,29.8430663,"-2.9492876,29.8430663"
Gitega_Murayi,-3.2940408,29.8281077,"-3.2940408,29.8281077"
Muyinga_Kivoga,-2.7791076,30.3602419,"-2.7791076,30.3602419"
Muyinga_Gatongati 1,-2.7669173,30.3703244,"-2.7669173,30.3703244"
Tangara_Buganuka,-3.0377554,29.9519522,"-3.0377554,29.9519522"
Muyinga_Gatovu,-2.8123653,30.3792158,"-2.8123653,30.3792158"
Tangara_Nyakibingo,-3.0240211,29.9516739,"-3.0240211,29.9516739"
Muyinga_Karemera,-2.8352917,30.3737333,"-2.8352917,30.3737333"
Muyinga_Musenyi,-2.7669774,30.4280836,"-2.7669774,30.4280836"
Muramvya_Busimba II,-3.2511141,29.5916216,"-3.2511141,29.5916216"
Muramvya_Busimba I,-3.2563434,29.5850899,"-3.2563434,29.5850899"
Kiremba_Mafuro,-2.8992268,29.9204571,"-2.8992268,29.9204571"
Bugendana_Nyangungu,-3.0269894,29.8375813,"-3.0269894,29.8375813"
Bugendana_Nyangungu,-3.1031983,29.8946367,"-3.1031983,29.8946367"
Muyinga_Sanzwe,-2.8073865,30.4137157,"-2.8073865,30.4137157"
Nyabihanga_Gihoma,-3.4290165,29.7688556,"-3.4290165,29.7688556"
Butaganzwa_Mpungwe,-3.5486726,30.1903162,"-3.5486726,30.1903162"
Ngozi_Cigumije,-2.956715,29.8045367,"-2.956715,29.8045367"
Mbuye_Kibumbu,-3.2287,29.760785,"-3.2287,29.760785"
Mbuye_Nete,-3.2285521,29.7608987,"-3.2285521,29.7608987"
Mbuye_kirika,-3.2276877,29.7612264,"-3.2276877,29.7612264"
Tangara_Musenyi,-2.9509345,30.0376353,"-2.9509345,30.0376353"
Ngozi_Bwizabweranka coop,-2.9448782,29.8819956,"-2.9448782,29.8819956"
Matongo_Kijuri,-3.0600803,29.6530374,"-3.0600803,29.6530374"
Bweru_Nyabigozi,-3.4017733,30.4581084,"-3.4017733,30.4581084"
Tangara_Gitwenzi,-3.0088391,29.9656003,"-3.0088391,29.9656003"
Matongo_Burarana,-3.0829149,29.6434107,"-3.0829149,29.6434107"
Tangara_Ryarunyinya,-2.9908429,29.9924886,"-2.9908429,29.9924886"
Butaganzwa_Kizigama,-3.4838043,30.1594872,"-3.4838043,30.1594872"
Nyarusange_Buhabwa coop,-3.6125213,29.7750802,"-3.6125213,29.7750802"
Nyabikere_Kivoga,-3.1928362,30.0988439,"-3.1928362,30.0988439"
Tangara_Nyagasebeyi,-2.958712,30.0297044,"-2.958712,30.0297044"
Gahombo_Nzewe,-3.0414669,29.7280016,"-3.0414669,29.7280016"
Gahombo_Mibazi,-3.0199584,29.7756968,"-3.0199584,29.7756968"
Gahombo_Ceyerezi,-3.0236095,29.7597948,"-3.0236095,29.7597948"
Gahombo_Mwenene,-3.0440557,29.7413389,"-3.0440557,29.7413389"
Matongo_Kigarama,-3.0829484,29.6543171,"-3.0829484,29.6543171"
Mbuye_Bigwana,-3.2295751,29.7210053,"-3.2295751,29.7210053"
Kayokwe_Gitunga,-3.4999481,29.8006541,"-3.4999481,29.8006541"
Mbuye_Mbuye,-3.2470611,29.6982261,"-3.2470611,29.6982261"
Mbuye_Kirembera,-3.2469756,29.6981777,"-3.2469756,29.6981777"
Mbuye_Teka,-3.2295369,29.7209889,"-3.2295369,29.7209889"
Mbuye_Buhangura,-3.2295674,29.7210268,"-3.2295674,29.7210268"
Muramvya_Musagara I,-3.2919204,29.632973,"-3.2919204,29.632973"
Mbuye_Migezi,-3.2285871,29.6832497,"-3.2285871,29.6832497"
Mbuye_Mwegera,-3.2286115,29.6831593,"-3.2286115,29.6831593"
Bugendana_Kibungo II,-3.226492,29.8818179,"-3.226492,29.8818179"
Bugendana_Nyabisaka,-3.1530431,29.8878482,"-3.1530431,29.8878482"
Bugendana_Mutaho I,-3.1408703,29.8669103,"-3.1408703,29.8669103"
Bugendana_Mutaho I,-3.1409919,29.8668777,"-3.1409919,29.8668777"
Gasorwe_Kagurwe,-2.868568,30.1888995,"-2.868568,30.1888995"
Nyabikere_Rugwiza coop,-3.2000349,30.1375432,"-3.2000349,30.1375432"
Nyabikere_Masama coop,-3.2240609,30.1340808,"-3.2240609,30.1340808"
Matongo_Kinyovu,-3.0616433,29.6100267,"-3.0616433,29.6100267"
Matongo_,-3.0616433,29.6100267,"-3.0616433,29.6100267"
Matongo_Camizi,-3.0616433,29.6100267,"-3.0616433,29.6100267"
Matongo_Gitwe,-3.0616433,29.6100267,"-3.0616433,29.6100267"
Matongo_Musonge,-3.0616433,29.6100267,"-3.0616433,29.6100267"
Kayokwe_Kibenga Migende,-3.5015133,29.7812624,"-3.5015133,29.7812624"
Nyabikere_Gikombe,-3.2260265,30.0928762,"-3.2260265,30.0928762"
Matongo_Shembati,-3.0786976,29.6736332,"-3.0786976,29.6736332"
Mwumba_Nyabikenke,-2.8026609,29.8532555,"-2.8026609,29.8532555"
Makebuko_Mugomera,-3.6395453,30.0547483,"-3.6395453,30.0547483"
Makebuko_Gisikara,-3.6661042,30.0497551,"-3.6661042,30.0497551"
Makebuko_Karemba,-3.7136821,30.0091565,"-3.7136821,30.0091565"
Makebuko_Gisikara coop,-3.6448157,30.0858775,"-3.6448157,30.0858775"
Bugendana_Masango,-3.1783165,29.8817587,"-3.1783165,29.8817587"
Ngozi_Nyabihanga coop,-2.9617422,29.8958263,"-2.9617422,29.8958263"
Tangara_Gitwa,-2.9750565,30.042193,"-2.9750565,30.042193"
Matongo_Bandaga,-3.0685967,29.6106117,"-3.0685967,29.6106117"
Mbuye_Nkomwe,-3.3778844,29.6934815,"-3.3778844,29.6934815"
Bugendana_Bigera,-3.136211,29.8727416,"-3.136211,29.8727416"
Bugendana_Mutaho II,-3.1409638,29.8668604,"-3.1409638,29.8668604"
Mbuye_Nkomwe,-3.3778844,29.6934815,"-3.3778844,29.6934815"
Muramvya_Musagara I,-3.2863045,29.6394708,"-3.2863045,29.6394708"
Muramvya_Mirinzi,-3.2919463,29.6328683,"-3.2919463,29.6328683"
Muramvya_Musagara II,-3.2764655,29.6321544,"-3.2764655,29.6321544"
Ngozi_Ruhongore coop,-2.965181,29.9022449,"-2.965181,29.9022449"
Matongo_Kigwandi,-3.1039683,29.660845,"-3.1039683,29.660845"
Matongo_Butuhurana,-3.094835,29.6386684,"-3.094835,29.6386684"
Ngozi_Kivuzo coop,-3.0092545,29.8151837,"-3.0092545,29.8151837"
Ngozi_Nkero coop,-2.9962352,29.8455248,"-2.9962352,29.8455248"
Ngozi_Kavumu coop,-2.9493911,29.865459,"-2.9493911,29.865459"
Ngozi_Mivo coop,-2.9406094,29.7943448,"-2.9406094,29.7943448"
Ngozi_Mugomera coop,-2.9813469,29.9001483,"-2.9813469,29.9001483"
Muyinga_Nyamarumba,-2.8412583,30.3944917,"-2.8412583,30.3944917"
Muyinga_Burima,-2.820559,30.3242293,"-2.820559,30.3242293"
Kayokwe_Ruvumu,-3.5112451,29.7463941,"-3.5112451,29.7463941"
Gasorwe_Buringa,-2.8872276,30.2095616,"-2.8872276,30.2095616"
Tangara_Mugirampeke,-2.966986,30.0603684,"-2.966986,30.0603684"
Giteranyi_Cagakori,-2.3559317,30.3950942,"-2.3559317,30.3950942"
Giteranyi_Kayove,-2.3833212,30.4165745,"-2.3833212,30.4165745"
Giteranyi_Nzove,-2.3805356,30.3896953,"-2.3805356,30.3896953"
Giteranyi_Bugoma,-2.4327819,30.4307235,"-2.4327819,30.4307235"
Tangara_Cumba,-2.9573549,30.0321235,"-2.9573549,30.0321235"
Karusi_Kanyange,-3.1189478,30.2272581,"-3.1189478,30.2272581"
Karusi_Buhinyuza,-3.1119118,30.1766664,"-3.1119118,30.1766664"
Karusi_Gisenyi,-3.0895948,30.2030899,"-3.0895948,30.2030899"
Bukirasazi_Ruvumu,-3.7019403,29.9991033,"-3.7019403,29.9991033"
Gihogazi_Ramba,-3.1245514,30.0153677,"-3.1245514,30.0153677"
Tangara_Buniha,-3.0521058,29.8843832,"-3.0521058,29.8843832"
Gishubi_Kinyonzo,-3.6569958,29.8267838,"-3.6569958,29.8267838"
Gishubi_Kibaya,-3.6532195,29.8527111,"-3.6532195,29.8527111"
Tangara_Bucamihigo,-3.0227483,29.8895867,"-3.0227483,29.8895867"
Gishubi_Ntunda I,-3.5367632,29.9025469,"-3.5367632,29.9025469"
Mbuye_Murehe I,-3.2284636,29.8211878,"-3.2284636,29.8211878"
Tangara_Mukoni,-3.0115489,29.9108999,"-3.0115489,29.9108999"
Tangara_Kabuye,-3.0166284,29.928162,"-3.0166284,29.928162"
Nyarusange_Gasenyi Coops,-3.5270396,29.7489377,"-3.5270396,29.7489377"
Nyabikere_Kigora,-3.3292216,30.0841674,"-3.3292216,30.0841674"
Karusi_Mwoya,-3.0099774,30.1865671,"-3.0099774,30.1865671"
Gitega_Rubamvyi I,-3.4888739,29.9963878,"-3.4888739,29.9963878"
Bweru_Nyabitare,-3.4510891,30.4155146,"-3.4510891,30.4155146"
Gitega_Rubamvyi II,-3.4568115,29.968495,"-3.4568115,29.968495"
Gitega_Nyakibingo coop,-3.4512993,29.9679151,"-3.4512993,29.9679151"
Kiremba_Buhoro,-2.894879,29.9293859,"-2.894879,29.9293859"
Kiremba_Butaganda,-2.888311,29.9693919,"-2.888311,29.9693919"
Kiremba_sigi,-2.872714,29.9681781,"-2.872714,29.9681781"
Kiremba_Munagano,-2.8862701,29.9806019,"-2.8862701,29.9806019"
Gitega_Higiro,-3.4105227,29.9594375,"-3.4105227,29.9594375"
Gitega_Higiro coop,-3.4107348,29.9602263,"-3.4107348,29.9602263"
Nyarusange_Tye Coops,-3.4884847,29.8918249,"-3.4884847,29.8918249"
Tangara_Mubira,-2.9895709,29.9170867,"-2.9895709,29.9170867"
Ruyigi_Kigamba,-3.4136603,30.2379196,"-3.4136603,30.2379196"
Makebuko_Buhinda,-3.6056231,30.0862349,"-3.6056231,30.0862349"
Ngozi_Gitwenzi coop,-2.9696974,29.7897259,"-2.9696974,29.7897259"
Kabarore_Kirehe,-2.8527989,29.5509049,"-2.8527989,29.5509049"
Kabarore_Kirehe,-2.8518617,29.5502271,"-2.8518617,29.5502271"
Kabarore_Mugera,-2.8500723,29.5399502,"-2.8500723,29.5399502"
Kabarore_Gisagara,-2.8398599,29.5049894,"-2.8398599,29.5049894"
Gitega_Kibande Sangwe kibande Coops,-3.3689693,29.962234,"-3.3689693,29.962234"
Matongo_Bumba,-3.1124268,29.6934352,"-3.1124268,29.6934352"
Giteranyi_Mugano,-2.611662,30.4154779,"-2.611662,30.4154779"
Gitega_Rubarasi coop,-3.3741673,29.936825,"-3.3741673,29.936825"
Gitega_Rubarasi,-3.3732217,29.9353304,"-3.3732217,29.9353304"
Gishubi_Yanza,-3.5632565,29.8931262,"-3.5632565,29.8931262"
Matongo_Gikungere,-3.1296501,29.6903658,"-3.1296501,29.6903658"
Butaganzwa_Nyamiyaga,-3.52194,30.0953812,"-3.52194,30.0953812"
Butaganzwa_Burenza,-3.504234,30.0942616,"-3.504234,30.0942616"
Butaganzwa_Nyange,-3.4472551,30.1130862,"-3.4472551,30.1130862"
Butaganzwa_Nyagashubi,-3.4524414,30.1024147,"-3.4524414,30.1024147"
Butaganzwa_Biyorwa,-3.4765576,30.101646,"-3.4765576,30.101646"
Butaganzwa_Rugongo,-3.4547765,30.1646296,"-3.4547765,30.1646296"
Butaganzwa_Kivoga,-3.4320724,30.1511899,"-3.4320724,30.1511899"
Butaganzwa_Masazi,-3.4808637,30.1213061,"-3.4808637,30.1213061"
Matongo_Ninga,-3.1289651,29.6896599,"-3.1289651,29.6896599"
Bukirasazi_Buhanda,-3.6496208,29.9706199,"-3.6496208,29.9706199"
Tangara_Cagura,-3.0410981,29.9121628,"-3.0410981,29.9121628"
Gahombo_Mikoni,-2.9424715,29.7247798,"-2.9424715,29.7247798"
Matongo_Rudehe,-3.134955,29.6031124,"-3.134955,29.6031124"
Matongo_Kivumu,-3.0751472,29.6075242,"-3.0751472,29.6075242"
Kabarore_Gisagara,-2.8398817,29.505053,"-2.8398817,29.505053"
Buhinyuza_Bunywana coop,-2.988468,30.3901344,"-2.988468,30.3901344"
Gitega_Bukwazo,-3.4158632,30.0259098,"-3.4158632,30.0259098"
Matongo_Rugoma,-3.1424699,29.6622963,"-3.1424699,29.6622963"
Gahombo_Bigugo,-3.0112639,29.7267862,"-3.0112639,29.7267862"
Gitega_Mugutu,-3.3950122,29.9430301,"-3.3950122,29.9430301"
Gihogazi_Bikinga,-3.1618868,29.9808982,"-3.1618868,29.9808982"
Kayokwe_Nyamugari,-3.5701503,29.7355909,"-3.5701503,29.7355909"
Rango_Gisara,-3.0567759,29.7984757,"-3.0567759,29.7984757"
Matongo_Munyinya B,-3.1432088,29.6617988,"-3.1432088,29.6617988"
Muyinga_Rusengo,-2.8914114,30.3377188,"-2.8914114,30.3377188"
Mwumba_Murama,-2.8075102,29.7726511,"-2.8075102,29.7726511"
Kabarore_Buvumo,-2.8156351,29.4768925,"-2.8156351,29.4768925"
Kayokwe_Rwuya,-3.5718266,29.7354202,"-3.5718266,29.7354202"
Kayokwe_Nyagitongati,-3.5556572,29.7290234,"-3.5556572,29.7290234"
Tangara_Kananira,-2.9399792,30.1287307,"-2.9399792,30.1287307"
Gitega_Muremera,-3.3341948,29.9011751,"-3.3341948,29.9011751"
Gitega_Mahonda,-3.4031703,29.9151989,"-3.4031703,29.9151989"
Kayokwe_Kibogoye,-3.5286956,29.7366188,"-3.5286956,29.7366188"
Rango_Rushenza,-3.0145189,29.8614717,"-3.0145189,29.8614717"
Tangara_Nyarugati,-2.9240533,30.0908224,"-2.9240533,30.0908224"
Nyabihanga_Nyamitore,-3.5077625,29.8406187,"-3.5077625,29.8406187"
Nyabihanga_Munago,-3.5076554,29.840589,"-3.5076554,29.840589"
Nyabihanga_Magamba,-3.4972514,29.8354045,"-3.4972514,29.8354045"
Marangara_Burenza,-2.7661124,29.9157961,"-2.7661124,29.9157961"
Marangara_Mutara,-2.7810215,29.9156572,"-2.7810215,29.9156572"
Marangara_Higiro,-2.7865479,29.9273446,"-2.7865479,29.9273446"
Marangara_Gikomero,-2.7502675,29.9385678,"-2.7502675,29.9385678"
Buhinyuza_Rugazi,-3.0216092,30.3345461,"-3.0216092,30.3345461"
Buhinyuza_Butihinda,-2.9505989,30.332285,"-2.9505989,30.332285"
Buhinyuza_Rugongo,-2.9986626,30.3223289,"-2.9986626,30.3223289"
Nyabihanga_Kibungo,-3.4811813,29.8338638,"-3.4811813,29.8338638"
Nyabihanga_Kibogoye,-3.4811011,29.8338348,"-3.4811011,29.8338348"
Marangara_Gicumbi,-2.7369413,29.9537829,"-2.7369413,29.9537829"
Ngozi_Mutumba coop,-2.8636869,29.7451611,"-2.8636869,29.7451611"
Ngozi_Rumbaga coop,-2.8906542,29.7101299,"-2.8906542,29.7101299"
Ngozi_Makombe B coop,-2.8604486,29.6949208,"-2.8604486,29.6949208"
Ngozi_Mparamirundi coop,-2.8429026,29.6629013,"-2.8429026,29.6629013"
Ngozi_Nyanza tubiri coop,-2.8391524,29.6589698,"-2.8391524,29.6589698"
Ngozi_Mutsinda coop,-2.819223,29.6956208,"-2.819223,29.6956208"
Tangara_Gitaramuka,-2.9356909,30.0875679,"-2.9356909,30.0875679"
Tangara_Mafu,-2.9196844,30.0609791,"-2.9196844,30.0609791"
Gahombo_Gakuro,-2.9858397,29.7271997,"-2.9858397,29.7271997"
Gahombo_Rukago,-2.985775,29.7271307,"-2.985775,29.7271307"
Kabarore_Rukere,-2.8314883,29.62892,"-2.8314883,29.62892"
Tangara_Musakazi,-2.8974055,30.0539229,"-2.8974055,30.0539229"
Tangara_Nkanda,-2.9111039,30.0915947,"-2.9111039,30.0915947"
Kabarore_Tondero,-2.8473137,29.4975665,"-2.8473137,29.4975665"
Matongo_Nteko,-3.0694683,29.5979295,"-3.0694683,29.5979295"
Tangara_Kamira,-2.9190019,30.1366507,"-2.9190019,30.1366507"
Tangara_Rugabo,-2.9482842,30.1205741,"-2.9482842,30.1205741"
Kabarore_Rorero,-2.8312282,29.6174194,"-2.8312282,29.6174194"
Mbuye_Mushikamo,-3.3322784,29.7049074,"-3.3322784,29.7049074"
Mbuye_Gashingwa,-3.3467482,29.7481015,"-3.3467482,29.7481015"
Mbuye_Nyamitwenzi,-3.3322998,29.7048608,"-3.3322998,29.7048608"
Mbuye_Bupfunda,-3.3398961,29.7256127,"-3.3398961,29.7256127"
Gahombo_Kiyange,-2.9924306,29.7479797,"-2.9924306,29.7479797"
Mbuye_Nyarukere,-3.3467115,29.7480078,"-3.3467115,29.7480078"
Kayokwe_Benja,-3.5236317,29.7662567,"-3.5236317,29.7662567"
Tangara_Cumba,-2.889336,30.1199833,"-2.889336,30.1199833"
Tangara_Gitaramuka R,-3.063884,29.9089467,"-3.063884,29.9089467"
Gahombo_Gasenyi,-2.9926406,29.7640812,"-2.9926406,29.7640812"
Kayokwe_Kanyami,-3.5568466,29.728965,"-3.5568466,29.728965"
Kayokwe_Ngara,-3.5459268,29.7249882,"-3.5459268,29.7249882"
Tangara_Kagoma,-3.0730208,29.9274784,"-3.0730208,29.9274784"
Gahombo_Sakinyinya,-3.0103023,29.7595873,"-3.0103023,29.7595873"
Kayokwe_Ruramba,-3.5405179,29.7324159,"-3.5405179,29.7324159"
Tangara_Rukongwa,-2.8929241,30.1612562,"-2.8929241,30.1612562"
Tangara_Nyagatovu,-2.8628108,30.169592,"-2.8628108,30.169592"
Tangara_Mashitsi,-2.8767263,30.1527202,"-2.8767263,30.1527202"
Butaganzwa_Musenga,-3.5486614,30.1904568,"-3.5486614,30.1904568"
Muramvya_Murambi,-3.2952087,29.608902,"-3.2952087,29.608902"
Kayokwe_Gasenyi,-3.5099991,29.6656952,"-3.5099991,29.6656952"
Kayokwe_Nyamurenge,-3.4915967,29.6712267,"-3.4915967,29.6712267"
Kayokwe_Kibimba,-3.5844601,29.630769,"-3.5844601,29.630769"
Kayokwe_Musimbwe,-3.5750548,29.5982048,"-3.5750548,29.5982048"
Kayokwe_Kiyange,-3.5463616,29.5933112,"-3.5463616,29.5933112"
Kayokwe_Nyakirwa,-3.5110592,29.5997059,"-3.5110592,29.5997059"
Kayokwe_Kirambi,-3.5213976,29.6366978,"-3.5213976,29.6366978"
Kayokwe_Matyazo,-3.4619505,29.6065226,"-3.4619505,29.6065226"
Mwumba_Hayiro,-2.8520374,29.8352864,"-2.8520374,29.8352864"
Kayokwe_Saswe,-3.5375333,29.7511962,"-3.5375333,29.7511962"
Mwumba_Nzove,-2.8340911,29.814787,"-2.8340911,29.814787"
Matongo_Matongo,-3.1061455,29.6110803,"-3.1061455,29.6110803"
Matongo_Matongo,-3.1061061,29.6110282,"-3.1061061,29.6110282"
Matongo_Mpemba,-3.1060558,29.6113384,"-3.1060558,29.6113384"
Mwumba_Karungura,-2.8682563,29.7772638,"-2.8682563,29.7772638"
Gasorwe_Karambo,-2.8623192,30.2185095,"-2.8623192,30.2185095"
Kabarore_Magamba,-2.9019013,29.6309199,"-2.9019013,29.6309199"
Ngozi_Cigumije coop,-2.9567441,29.8046732,"-2.9567441,29.8046732"
Ngozi_Sare coop,-2.9534764,29.8226098,"-2.9534764,29.8226098"
Ngozi_Gitwa coop,-2.7930719,29.8035304,"-2.7930719,29.8035304"
Mwumba_Gihama,-2.8429283,29.7814065,"-2.8429283,29.7814065"
Mwumba_Gakenke,-2.8570517,29.7596345,"-2.8570517,29.7596345"
Mwumba_Gitasi,-2.8545708,29.8043639,"-2.8545708,29.8043639"
Mwumba_Mushitsi,-2.8545583,29.8044033,"-2.8545583,29.8044033"
Butaganzwa_muriza,-3.5701416,30.1356374,"-3.5701416,30.1356374"
Mwumba_Murambi,-2.9058772,29.7133593,"-2.9058772,29.7133593"
Gahombo_Karinzi,-2.97829,29.7408667,"-2.97829,29.7408667"
Gahombo_Kinyonga,-2.9600665,29.7266421,"-2.9600665,29.7266421"
Gahombo_Ruzingati,-2.9783671,29.7406807,"-2.9783671,29.7406807"
Ngozi_Nzove coop,-2.8338227,29.8151777,"-2.8338227,29.8151777"
Mwumba_Gatika,-2.9052685,29.7482574,"-2.9052685,29.7482574"
Kabarore_Nyamisagara,-2.8738927,29.5393216,"-2.8738927,29.5393216"
Mwumba_Gikingo,-2.8524014,29.8512163,"-2.8524014,29.8512163"
Kayokwe_Nyakibari,-3.5115294,29.7973662,"-3.5115294,29.7973662"
Mwumba_Mihigo,-2.8519948,29.7467161,"-2.8519948,29.7467161"
Gishubi_Ntunda II,-3.4737361,29.6628864,"-3.4737361,29.6628864"
Bugendana_Bitare,-3.2642165,29.9041605,"-3.2642165,29.9041605"
Kayokwe_Kizi,-3.5292926,29.6857902,"-3.5292926,29.6857902"
Gitega_Songa,-3.4664422,29.952038,"-3.4664422,29.952038"
Nyabihanga_Iteka,-3.4232968,29.8340856,"-3.4232968,29.8340856"
Kayokwe_Bisha,-3.5119467,29.6953098,"-3.5119467,29.6953098"
Gishubi_Murehe,-3.6123392,29.8652821,"-3.6123392,29.8652821"
Muramvya_Ruhinga,-3.3451067,29.5964613,"-3.3451067,29.5964613"
Muramvya_Ruhinga,-3.3452158,29.5964238,"-3.3452158,29.5964238"
Nyabihanga_Taba,-3.4703061,29.8094278,"-3.4703061,29.8094278"
Gahombo_Shinya,-3.0188791,29.691957,"-3.0188791,29.691957"
Marangara_Runda,-2.7584323,29.9222985,"-2.7584323,29.9222985"
Bugendana_Mwurire,-3.2557883,29.9211736,"-3.2557883,29.9211736"
Gishubi_Gatoza,-3.6256197,29.9065733,"-3.6256197,29.9065733"
Mwumba_Gitwa,-2.8007031,29.8054267,"-2.8007031,29.8054267"
Gahombo_Rubagabaga,-2.95464,29.6815733,"-2.95464,29.6815733"
Gahombo_Kibaribari,-2.9782913,29.6816097,"-2.9782913,29.6816097"
Gishubi_Mahonda,-3.6685933,29.849785,"-3.6685933,29.849785"
Muramvya_Rwantsinda,-3.128985,29.571271,"-3.128985,29.571271"
Muramvya_Nyambo,-3.1446291,29.5888839,"-3.1446291,29.5888839"
Muramvya_Gashishima,-3.1448764,29.5895782,"-3.1448764,29.5895782"
Muramvya_Burarana,-3.1576219,29.6189361,"-3.1576219,29.6189361"
Muramvya_Busangana,-3.1741082,29.6234103,"-3.1741082,29.6234103"
Gitega_Mubuga,-3.4102311,30.0184717,"-3.4102311,30.0184717"
Gitega_Murirwe coop,-3.4107111,30.0185478,"-3.4107111,30.0185478"
Gitega_Ngobeke,-3.4107023,30.0185813,"-3.4107023,30.0185813"
Gitega_Mirama,-3.3743683,29.9862967,"-3.3743683,29.9862967"
Gitega_Murirwe,-3.4100671,30.0177501,"-3.4100671,30.0177501"
Gitega_Gasunu,-3.429941,29.9339561,"-3.429941,29.9339561"
Gitega_Kimanama,-3.415898,30.0263423,"-3.415898,30.0263423"
Gasorwe_Kinama,-2.8622898,30.2184393,"-2.8622898,30.2184393"
Gasorwe_Kiryama,-2.8668729,30.2480508,"-2.8668729,30.2480508"
Kabarore_Mugera,-2.8501029,29.539913,"-2.8501029,29.539913"
Kabarore_Kirehe,-2.8519799,29.5502034,"-2.8519799,29.5502034"
Kabarore_Gikingo,-2.8462959,29.5693577,"-2.8462959,29.5693577"
Kabarore_Mutana,-2.8388524,29.5747027,"-2.8388524,29.5747027"
Kabarore_Yandaro,-2.8397512,29.5885458,"-2.8397512,29.5885458"
Mbuye_Rwuya,-3.2603261,29.6600492,"-3.2603261,29.6600492"
Muramvya_Rweteto II,-3.2262286,29.6125975,"-3.2262286,29.6125975"
Muramvya_Shumba,-3.2262212,29.6124866,"-3.2262212,29.6124866"
Muramvya_Masango I,-3.2682783,29.6688095,"-3.2682783,29.6688095"
Muramvya_Matyazo I Mur,-3.2807064,29.7016794,"-3.2807064,29.7016794"
Muramvya_Murambi K,-3.2808942,29.7018068,"-3.2808942,29.7018068"
Muramvya_Kivogero II,-3.220992,29.6501105,"-3.220992,29.6501105"
Muramvya_Kivogero I,-3.2191218,29.6414998,"-3.2191218,29.6414998"
Muramvya_Matyazo II Mur,-3.3182071,29.6721505,"-3.3182071,29.6721505"
Muramvya_Kayange,-3.3186094,29.6728452,"-3.3186094,29.6728452"
Muramvya_Ruvumu mur,-3.3305051,29.6655734,"-3.3305051,29.6655734"
Muramvya_Rubumba,-3.3314254,29.6656953,"-3.3314254,29.6656953"
Muramvya_Kiganda,-3.3416738,29.6853933,"-3.3416738,29.6853933"
Muramvya_Kivyeyi II,-3.3026151,29.6515265,"-3.3026151,29.6515265"
Muramvya_Kivyeyi I,-3.2936515,29.6600405,"-3.2936515,29.6600405"
Muramvya_Nyagisozi,-3.2827764,29.6778781,"-3.2827764,29.6778781"
Butaganzwa_Musenga,-3.5486286,30.1905275,"-3.5486286,30.1905275"
Bugendana_Cishwa I,-3.2228167,29.94762,"-3.2228167,29.94762"
Nyabikere_Bukirasazi,-3.3600352,30.019225,"-3.3600352,30.019225"
Ngozi_Kavumu,-2.9497998,29.8654479,"-2.9497998,29.8654479"
Ngozi_Mubuga,-2.959897,29.8785697,"-2.959897,29.8785697"
Ngozi_Mubuga,-2.9598647,29.8786515,"-2.9598647,29.8786515"
Matongo_Nyarurama,-3.1045239,29.7224094,"-3.1045239,29.7224094"
Matongo_Muremera,-3.105003,29.7221202,"-3.105003,29.7221202"
Bugendana_Mutoyi I,-3.2130069,29.9770595,"-3.2130069,29.9770595"
Bukirasazi_Mpingwe,-3.6981514,29.967133,"-3.6981514,29.967133"
Mwumba_Hayiro,-2.8520223,29.8354163,"-2.8520223,29.8354163"
Gitega_Rutoke,-3.4559398,29.9689817,"-3.4559398,29.9689817"
Matongo_Gahise,-3.0832366,29.7291426,"-3.0832366,29.7291426"
Matongo_Rukambura,-3.0834271,29.7289045,"-3.0834271,29.7289045"
Matongo_Munyinya B,-3.1125391,29.6934319,"-3.1125391,29.6934319"
Bugendana_Nyagisenyi,-3.2703933,30.0001517,"-3.2703933,30.0001517"
Bugendana_Kivuvu I,-3.253659,29.9953747,"-3.253659,29.9953747"
Bugendana_Kivuvu II,-3.2580847,29.9868384,"-3.2580847,29.9868384"
Bugendana_Kivuvu III,-3.2387055,29.9809788,"-3.2387055,29.9809788"
Bugendana_Mutoyi II,-3.2123106,29.9853221,"-3.2123106,29.9853221"
Gahombo_Gasave,-3.0049585,29.7267237,"-3.0049585,29.7267237"
Matongo_Gatabo,-3.0613743,29.7022844,"-3.0613743,29.7022844"
Marangara_Gisekuro,-2.741651,29.9932281,"-2.741651,29.9932281"
Marangara_kigufi,-2.734109,29.99142,"-2.734109,29.99142"
Marangara_Nyambo,-2.7184441,29.9876417,"-2.7184441,29.9876417"
Bugendana_Nyakeru II,-3.1784652,29.9632908,"-3.1784652,29.9632908"
Bugendana_Mutoyi III,-3.1876098,29.9702459,"-3.1876098,29.9702459"
Bugendana_Cishwa II,-3.2306683,29.9633181,"-3.2306683,29.9633181"
Marangara_Kigoma,-2.7510947,30.0103144,"-2.7510947,30.0103144"
Marangara_Nyanza,-2.7511867,30.01041,"-2.7511867,30.01041"
Muramvya_Biganda II,-3.2512246,29.642697,"-3.2512246,29.642697"
Muramvya_Biganda I,-3.2526009,29.6161801,"-3.2526009,29.6161801"
Kabarore_Kibakwe,-2.9216093,29.5874296,"-2.9216093,29.5874296"
Ngozi_Kinyana coop,-2.8987876,29.7945826,"-2.8987876,29.7945826"
Giteranyi_Murama,-2.4000038,30.481709,"-2.4000038,30.481709"
Ngozi_Kavumu B coop,-2.9284721,29.7336095,"-2.9284721,29.7336095"
Ngozi_Gahengeri,-2.9435574,29.8184411,"-2.9435574,29.8184411"
Ngozi_,-2.901234,29.7749345,"-2.901234,29.7749345"
Ngozi_Mugomera,-2.9812892,29.9001936,"-2.9812892,29.9001936"
Kayokwe_Kigarama II,-3.4408102,29.7310943,"-3.4408102,29.7310943"
Kayokwe_Gatsinga II,-3.4156575,29.6934601,"-3.4156575,29.6934601"
Kayokwe_Gatsinga I,-3.4169896,29.6943763,"-3.4169896,29.6943763"
Kayokwe_Fota,-3.4440477,29.7039718,"-3.4440477,29.7039718"
Kayokwe_Kigarama I,-3.4448522,29.7356823,"-3.4448522,29.7356823"
Ngozi_Ntaho,-2.9916179,29.8776715,"-2.9916179,29.8776715"
Ngozi_Makaba,-2.9926172,29.8283735,"-2.9926172,29.8283735"
Ngozi_Mbaba,-3.0107022,29.805294,"-3.0107022,29.805294"
Ngozi_Gahengeri,-2.9436292,29.8185152,"-2.9436292,29.8185152"
Gishubi_Mirango,-3.7467705,29.805045,"-3.7467705,29.805045"
Rango_Butanyerera I,-3.170045,29.7387947,"-3.170045,29.7387947"
Kayokwe_Bugera,-3.4177054,29.7393436,"-3.4177054,29.7393436"
Nyarusange_Gasenyi Coops,-3.5216244,29.7608808,"-3.5216244,29.7608808"
Kayokwe_Rutyazo,-3.4673367,29.7126375,"-3.4673367,29.7126375"
Gihogazi_Murago,-3.1249191,30.0029991,"-3.1249191,30.0029991"
Gihogazi_Bikinga,-3.1618242,29.9809078,"-3.1618242,29.9809078"
Bukirasazi_Buraza,-3.7470046,29.9023268,"-3.7470046,29.9023268"
Kayokwe_Murago,-3.3917088,29.7315434,"-3.3917088,29.7315434"
Bukirasazi_Ndava,-3.7466183,29.9026928,"-3.7466183,29.9026928"
Bukirasazi_Buriza,-3.7467315,29.9028634,"-3.7467315,29.9028634"
Bukirasazi_Kabumbe,-3.7468883,29.9030283,"-3.7468883,29.9030283"
Bukirasazi_Musebeyi,-3.744585,29.90055,"-3.744585,29.90055"
Bukirasazi_Mahonda,-3.7266663,29.8670753,"-3.7266663,29.8670753"
Bukirasazi_Bugega,-3.7267263,29.8681252,"-3.7267263,29.8681252"
Bukirasazi_Gisura,-3.7266455,29.8681358,"-3.7266455,29.8681358"
Bukirasazi_Mugano,-3.7649917,29.8701183,"-3.7649917,29.8701183"
Bukirasazi_Maza,-3.7275374,29.8678743,"-3.7275374,29.8678743"
Bukirasazi_Gitaramuka,-3.7100525,29.8966369,"-3.7100525,29.8966369"
Kayokwe_Musivya,-3.6017883,29.65433,"-3.6017883,29.65433"
Bukirasazi_Gicumbi,-3.7468,29.9029417,"-3.7468,29.9029417"
Kayokwe_Ndava,-3.5648091,29.6704584,"-3.5648091,29.6704584"
Bukirasazi_Ndago,-3.8168167,29.9227534,"-3.8168167,29.9227534"
Bukirasazi_Muyange,-3.7839469,29.9602166,"-3.7839469,29.9602166"
Bukirasazi_Butezi,-3.7930342,29.9462633,"-3.7930342,29.9462633"
Bukirasazi_Bubaji,-3.702984,29.9196237,"-3.702984,29.9196237"
Bukirasazi_Gicumbi,-3.7467474,29.902867,"-3.7467474,29.902867"
Kayokwe_Rango,-3.3911821,29.7304545,"-3.3911821,29.7304545"
Buhinyuza_Ruvumu,-3.0029765,30.3085937,"-3.0029765,30.3085937"
DEPOT - Mushasha I,-3.44017,29.934,"-3.44017,29.934"
DEPOT - GDV,-3.42112,29.91693,"-3.42112,29.91693"
DEPOT - Ngozi Centre,-2.91542,29.8205,"-2.91542,29.8205"
DEPOT - Kayanza Cassius,-2.92045,29.62357,"-2.92045,29.62357"
DEPOT - Kayanza,-2.93202,29.63466,"-2.93202,29.63466"
DEPOT - GDR,-3.39422,29.92417,"-3.39422,29.92417"
DEPOT - Muramvya (Claude),-3.27278,29.61435,"-3.27278,29.61435"
DEPOT - Claude,-3.26765,29.61971,"-3.26765,29.61971"
DEPOT - Muyinga,-2.84443,30.34486,"-2.84443,30.34486"
DEPOT - Placide,-3.26761,29.61625,"-3.26761,29.61625"
DEPOT - Mwaro,-3.51954,29.70551,"-3.51954,29.70551"
DEPOT - Ruyigi,-3.47187,30.25426,"-3.47187,30.25426"
